{
  "data": [
    {
      "city": "Pearl City",
      "latitude": 21.4023,
      "longitude": -157.9642,
      "session_hits": 2
    },
    {
      "city": "Courtenay",
      "latitude": 49.6585,
      "longitude": -124.9835,
      "session_hits": 2
    },
    {
      "city": "Vancouver",
      "latitude": 49.2462,
      "longitude": -123.108,
      "session_hits": 1
    },
    {
      "city": "Burnaby",
      "latitude": 49.2732,
      "longitude": -123.0124,
      "session_hits": 1
    },
    {
      "city": "New Westminster",
      "latitude": 49.2189,
      "longitude": -122.9011,
      "session_hits": 1
    },
    {
      "city": "Surrey",
      "latitude": 49.1378,
      "longitude": -122.8521,
      "session_hits": 2
    },
    {
      "city": "Surrey",
      "latitude": 49.1888,
      "longitude": -122.8439,
      "session_hits": 1
    },
    {
      "city": "Port Coquitlam",
      "latitude": 49.2774,
      "longitude": -122.7625,
      "session_hits": 1
    },
    {
      "city": "Santa Rosa",
      "latitude": 38.4782,
      "longitude": -122.7475,
      "session_hits": 1
    },
    {
      "city": "Portland",
      "latitude": 45.461,
      "longitude": -122.7052,
      "session_hits": 1
    },
    {
      "city": "Portland",
      "latitude": 45.5173,
      "longitude": -122.6398,
      "session_hits": 2
    },
    {
      "city": "San Anselmo",
      "latitude": 37.9861,
      "longitude": -122.5688,
      "session_hits": 3
    },
    {
      "city": "San Rafael",
      "latitude": 37.9681,
      "longitude": -122.5119,
      "session_hits": 1
    },
    {
      "city": "Pacifica",
      "latitude": 37.6196,
      "longitude": -122.4816,
      "session_hits": 1
    },
    {
      "city": "Bellingham",
      "latitude": 48.799,
      "longitude": -122.4499,
      "session_hits": 1
    },
    {
      "city": "Tacoma",
      "latitude": 47.2962,
      "longitude": -122.3953,
      "session_hits": 1
    },
    {
      "city": "Seattle",
      "latitude": 47.7346,
      "longitude": -122.3479,
      "session_hits": 1
    },
    {
      "city": "Richmond",
      "latitude": 37.9269,
      "longitude": -122.3313,
      "session_hits": 1
    },
    {
      "city": "El Cerrito",
      "latitude": 37.9145,
      "longitude": -122.3007,
      "session_hits": 1
    },
    {
      "city": "Redwood City",
      "latitude": 37.4845,
      "longitude": -122.2347,
      "session_hits": 1
    },
    {
      "city": "Oakland",
      "latitude": 37.7794,
      "longitude": -122.2178,
      "session_hits": 2
    },
    {
      "city": "Palo Alto",
      "latitude": 37.4651,
      "longitude": -122.143,
      "session_hits": 3
    },
    {
      "city": "Martinez",
      "latitude": 38.0194,
      "longitude": -122.1341,
      "session_hits": 4
    },
    {
      "city": "Renton",
      "latitude": 47.509,
      "longitude": -122.1163,
      "session_hits": 1
    },
    {
      "city": "Hayward",
      "latitude": 37.6403,
      "longitude": -122.0667,
      "session_hits": 2
    },
    {
      "city": "Fremont",
      "latitude": 37.5731,
      "longitude": -122.0539,
      "session_hits": 1
    },
    {
      "city": "Fairfield",
      "latitude": 38.267,
      "longitude": -122.044,
      "session_hits": 5
    },
    {
      "city": "Sunnyvale",
      "latitude": 37.3479,
      "longitude": -122.0351,
      "session_hits": 1
    },
    {
      "city": "Union City",
      "latitude": 37.5958,
      "longitude": -122.0191,
      "session_hits": 4
    },
    {
      "city": "Santa Clara",
      "latitude": 37.3486,
      "longitude": -121.9732,
      "session_hits": 4
    },
    {
      "city": "San Ramon",
      "latitude": 37.7558,
      "longitude": -121.9527,
      "session_hits": 4
    },
    {
      "city": "San Jose",
      "latitude": 37.3177,
      "longitude": -121.938,
      "session_hits": 1
    },
    {
      "city": "Fremont",
      "latitude": 37.5217,
      "longitude": -121.9249,
      "session_hits": 2
    },
    {
      "city": "San Jose",
      "latitude": 37.4001,
      "longitude": -121.8531,
      "session_hits": 9
    },
    {
      "city": "San Jose",
      "latitude": 37.2507,
      "longitude": -121.836,
      "session_hits": 2
    },
    {
      "city": "San Jose",
      "latitude": 37.3698,
      "longitude": -121.816,
      "session_hits": 2
    },
    {
      "city": "San Jose",
      "latitude": 37.3372,
      "longitude": -121.798,
      "session_hits": 7
    },
    {
      "city": "Livermore",
      "latitude": 37.7562,
      "longitude": -121.77,
      "session_hits": 5
    },
    {
      "city": "Livermore",
      "latitude": 37.6864,
      "longitude": -121.7654,
      "session_hits": 2
    },
    {
      "city": "San Jose",
      "latitude": 37.2995,
      "longitude": -121.7578,
      "session_hits": 3
    },
    {
      "city": "Tracy",
      "latitude": 37.7712,
      "longitude": -121.5382,
      "session_hits": 3
    },
    {
      "city": "Lathrop",
      "latitude": 37.8203,
      "longitude": -121.2804,
      "session_hits": 3
    },
    {
      "city": "Modesto",
      "latitude": 37.6755,
      "longitude": -121.0068,
      "session_hits": 2
    },
    {
      "city": "Modesto",
      "latitude": 37.6752,
      "longitude": -120.9465,
      "session_hits": 3
    },
    {
      "city": "Merced",
      "latitude": 37.2972,
      "longitude": -120.4639,
      "session_hits": 1
    },
    {
      "city": "Clovis",
      "latitude": 36.8424,
      "longitude": -119.6564,
      "session_hits": 1
    },
    {
      "city": "Richland",
      "latitude": 46.3257,
      "longitude": -119.3067,
      "session_hits": 1
    },
    {
      "city": "Thousand Oaks",
      "latitude": 34.197,
      "longitude": -118.8199,
      "session_hits": 1
    },
    {
      "city": "Palos Verdes Estates",
      "latitude": 33.7671,
      "longitude": -118.3814,
      "session_hits": 1
    },
    {
      "city": "Los Angeles",
      "latitude": 34.0544,
      "longitude": -118.244,
      "session_hits": 7
    },
    {
      "city": "Los Angeles",
      "latitude": 34.0486,
      "longitude": -118.1796,
      "session_hits": 1
    },
    {
      "city": "Pasadena",
      "latitude": 34.1361,
      "longitude": -118.1672,
      "session_hits": 2
    },
    {
      "city": "Cypress",
      "latitude": 33.8206,
      "longitude": -118.034,
      "session_hits": 4
    },
    {
      "city": "Fountain Valley",
      "latitude": 33.707,
      "longitude": -117.9519,
      "session_hits": 1
    },
    {
      "city": "Rowland Heights",
      "latitude": 33.9816,
      "longitude": -117.9092,
      "session_hits": 1
    },
    {
      "city": "Irvine",
      "latitude": 33.7015,
      "longitude": -117.7528,
      "session_hits": 2
    },
    {
      "city": "Corona",
      "latitude": 33.8241,
      "longitude": -117.5198,
      "session_hits": 1
    },
    {
      "city": "Fontana",
      "latitude": 34.1211,
      "longitude": -117.4362,
      "session_hits": 3
    },
    {
      "city": "Lake Elsinore",
      "latitude": 33.6598,
      "longitude": -117.3485,
      "session_hits": 1
    },
    {
      "city": "Vista",
      "latitude": 33.2109,
      "longitude": -117.2232,
      "session_hits": 2
    },
    {
      "city": "San Diego",
      "latitude": 33.0287,
      "longitude": -117.0846,
      "session_hits": 4
    },
    {
      "city": "San Diego",
      "latitude": 33.0035,
      "longitude": -117.0696,
      "session_hits": 3
    },
    {
      "city": "El Cajon",
      "latitude": 32.7766,
      "longitude": -116.9204,
      "session_hits": 1
    },
    {
      "city": "Boise",
      "latitude": 43.578,
      "longitude": -116.2954,
      "session_hits": 1
    },
    {
      "city": "Calgary",
      "latitude": 51.1391,
      "longitude": -114.2002,
      "session_hits": 2
    },
    {
      "city": "Airdrie",
      "latitude": 51.3062,
      "longitude": -114.0394,
      "session_hits": 1
    },
    {
      "city": "Phoenix",
      "latitude": 33.7352,
      "longitude": -112.1222,
      "session_hits": 1
    },
    {
      "city": "Phoenix",
      "latitude": 33.3874,
      "longitude": -112.0998,
      "session_hits": 1
    },
    {
      "city": "Phoenix",
      "latitude": 33.3789,
      "longitude": -112.026,
      "session_hits": 2
    },
    {
      "city": "Phoenix",
      "latitude": 33.6861,
      "longitude": -112.0007,
      "session_hits": 1
    },
    {
      "city": "Chandler",
      "latitude": 33.3124,
      "longitude": -111.9195,
      "session_hits": 1
    },
    {
      "city": "Chandler",
      "latitude": 33.2409,
      "longitude": -111.7792,
      "session_hits": 1
    },
    {
      "city": "Mesa",
      "latitude": 33.3429,
      "longitude": -111.6347,
      "session_hits": 1
    },
    {
      "city": "San Tan Valley",
      "latitude": 33.1922,
      "longitude": -111.5318,
      "session_hits": 1
    },
    {
      "city": "Arvada",
      "latitude": 39.842,
      "longitude": -105.1101,
      "session_hits": 1
    },
    {
      "city": "Englewood",
      "latitude": 39.6511,
      "longitude": -104.9921,
      "session_hits": 2
    },
    {
      "city": "Littleton",
      "latitude": 39.5404,
      "longitude": -104.9183,
      "session_hits": 1
    },
    {
      "city": "Denver",
      "latitude": 39.6876,
      "longitude": -104.9103,
      "session_hits": 1
    },
    {
      "city": "Englewood",
      "latitude": 39.5802,
      "longitude": -104.9038,
      "session_hits": 1
    },
    {
      "city": "Denver",
      "latitude": 39.7189,
      "longitude": -104.8916,
      "session_hits": 1
    },
    {
      "city": "Laredo",
      "latitude": 27.5569,
      "longitude": -99.4907,
      "session_hits": 1
    },
    {
      "city": "San Antonio",
      "latitude": 29.5443,
      "longitude": -98.5499,
      "session_hits": 2
    },
    {
      "city": "San Antonio",
      "latitude": 29.7026,
      "longitude": -98.4759,
      "session_hits": 1
    },
    {
      "city": "Pharr",
      "latitude": 26.1948,
      "longitude": -98.1836,
      "session_hits": 1
    },
    {
      "city": "Austin",
      "latitude": 30.37,
      "longitude": -97.9437,
      "session_hits": 1
    },
    {
      "city": "Leander",
      "latitude": 30.5875,
      "longitude": -97.8535,
      "session_hits": 4
    },
    {
      "city": "",
      "latitude": 37.751,
      "longitude": -97.822,
      "session_hits": 13
    },
    {
      "city": "Austin",
      "latitude": 30.5034,
      "longitude": -97.7494,
      "session_hits": 1
    },
    {
      "city": "Austin",
      "latitude": 30.1826,
      "longitude": -97.7394,
      "session_hits": 1
    },
    {
      "city": "Round Rock",
      "latitude": 30.5154,
      "longitude": -97.6689,
      "session_hits": 2
    },
    {
      "city": "Edmond",
      "latitude": 35.6211,
      "longitude": -97.4757,
      "session_hits": 1
    },
    {
      "city": "Winnipeg",
      "latitude": 49.7852,
      "longitude": -97.2117,
      "session_hits": 1
    },
    {
      "city": "Fort Worth",
      "latitude": 32.7507,
      "longitude": -97.2095,
      "session_hits": 1
    },
    {
      "city": "Irving",
      "latitude": 32.926,
      "longitude": -96.9666,
      "session_hits": 5
    },
    {
      "city": "Irving",
      "latitude": 32.799,
      "longitude": -96.956,
      "session_hits": 1
    },
    {
      "city": "",
      "latitude": 32.7797,
      "longitude": -96.8022,
      "session_hits": 4
    },
    {
      "city": "Dallas",
      "latitude": 32.7123,
      "longitude": -96.7939,
      "session_hits": 3
    },
    {
      "city": "Fargo",
      "latitude": 46.8796,
      "longitude": -96.7814,
      "session_hits": 1
    },
    {
      "city": "McKinney",
      "latitude": 33.1976,
      "longitude": -96.6178,
      "session_hits": 12
    },
    {
      "city": "Forney",
      "latitude": 32.749,
      "longitude": -96.4629,
      "session_hits": 2
    },
    {
      "city": "Katy",
      "latitude": 29.8323,
      "longitude": -95.736,
      "session_hits": 1
    },
    {
      "city": "Richmond",
      "latitude": 29.6654,
      "longitude": -95.7245,
      "session_hits": 1
    },
    {
      "city": "Houston",
      "latitude": 29.8478,
      "longitude": -95.6599,
      "session_hits": 2
    },
    {
      "city": "Houston",
      "latitude": 29.8973,
      "longitude": -95.6463,
      "session_hits": 1
    },
    {
      "city": "Houston",
      "latitude": 29.7009,
      "longitude": -95.5885,
      "session_hits": 2
    },
    {
      "city": "Houston",
      "latitude": 29.6731,
      "longitude": -95.5856,
      "session_hits": 1
    },
    {
      "city": "Houston",
      "latitude": 29.9787,
      "longitude": -95.5845,
      "session_hits": 1
    },
    {
      "city": "Houston",
      "latitude": 29.6921,
      "longitude": -95.5133,
      "session_hits": 1
    },
    {
      "city": "Houston",
      "latitude": 29.7422,
      "longitude": -95.4903,
      "session_hits": 1
    },
    {
      "city": "Houston",
      "latitude": 29.7212,
      "longitude": -95.3626,
      "session_hits": 1
    },
    {
      "city": "Houston",
      "latitude": 29.7539,
      "longitude": -95.359,
      "session_hits": 1
    },
    {
      "city": "Overland Park",
      "latitude": 38.8939,
      "longitude": -94.7067,
      "session_hits": 5
    },
    {
      "city": "Maple Grove",
      "latitude": 45.0702,
      "longitude": -93.4556,
      "session_hits": 2
    },
    {
      "city": "Minneapolis",
      "latitude": 44.9399,
      "longitude": -93.2548,
      "session_hits": 1
    },
    {
      "city": "City of Saint Peters",
      "latitude": 38.7808,
      "longitude": -90.6355,
      "session_hits": 1
    },
    {
      "city": "Memphis",
      "latitude": 35.1128,
      "longitude": -89.9085,
      "session_hits": 1
    },
    {
      "city": "Millington",
      "latitude": 35.3155,
      "longitude": -89.9036,
      "session_hits": 1
    },
    {
      "city": "Jackson",
      "latitude": 37.3866,
      "longitude": -89.653,
      "session_hits": 1
    },
    {
      "city": "Normal",
      "latitude": 40.5093,
      "longitude": -88.9844,
      "session_hits": 3
    },
    {
      "city": "Schaumburg",
      "latitude": 42.0317,
      "longitude": -88.0833,
      "session_hits": 2
    },
    {
      "city": "Franklin",
      "latitude": 42.8886,
      "longitude": -88.0384,
      "session_hits": 2
    },
    {
      "city": "Wilmette",
      "latitude": 42.077,
      "longitude": -87.7209,
      "session_hits": 1
    },
    {
      "city": "Chicago",
      "latitude": 41.7697,
      "longitude": -87.6985,
      "session_hits": 2
    },
    {
      "city": "Brentwood",
      "latitude": 36.0048,
      "longitude": -86.7886,
      "session_hits": 2
    },
    {
      "city": "Murfreesboro",
      "latitude": 35.8677,
      "longitude": -86.4174,
      "session_hits": 1
    },
    {
      "city": "Chattanooga",
      "latitude": 35.0278,
      "longitude": -85.1461,
      "session_hits": 1
    },
    {
      "city": "Lexington",
      "latitude": 37.9643,
      "longitude": -84.4703,
      "session_hits": 1
    },
    {
      "city": "Cincinnati",
      "latitude": 39.139,
      "longitude": -84.4296,
      "session_hits": 1
    },
    {
      "city": "Atlanta",
      "latitude": 33.7574,
      "longitude": -84.4236,
      "session_hits": 4
    },
    {
      "city": "Okemos",
      "latitude": 42.7031,
      "longitude": -84.4188,
      "session_hits": 1
    },
    {
      "city": "Atlanta",
      "latitude": 33.8842,
      "longitude": -84.3761,
      "session_hits": 2
    },
    {
      "city": "Loveland",
      "latitude": 39.2689,
      "longitude": -84.2638,
      "session_hits": 1
    },
    {
      "city": "Suwanee",
      "latitude": 34.0515,
      "longitude": -84.0713,
      "session_hits": 2
    },
    {
      "city": "Knoxville",
      "latitude": 35.9605,
      "longitude": -83.9234,
      "session_hits": 1
    },
    {
      "city": "Pigeon Forge",
      "latitude": 35.7918,
      "longitude": -83.5674,
      "session_hits": 1
    },
    {
      "city": "Farmington Hills",
      "latitude": 42.4622,
      "longitude": -83.3994,
      "session_hits": 1
    },
    {
      "city": "Rochester Hills",
      "latitude": 42.6563,
      "longitude": -83.1231,
      "session_hits": 1
    },
    {
      "city": "Lewis Center",
      "latitude": 40.189,
      "longitude": -83.0063,
      "session_hits": 1
    },
    {
      "city": "Lancaster",
      "latitude": 39.7184,
      "longitude": -82.6073,
      "session_hits": 3
    },
    {
      "city": "Orange Park",
      "latitude": 30.132,
      "longitude": -81.7726,
      "session_hits": 1
    },
    {
      "city": "Cleveland",
      "latitude": 41.5622,
      "longitude": -81.4842,
      "session_hits": 1
    },
    {
      "city": "Charlotte",
      "latitude": 35.2916,
      "longitude": -80.8201,
      "session_hits": 1
    },
    {
      "city": "Wellington",
      "latitude": 26.6598,
      "longitude": -80.2429,
      "session_hits": 3
    },
    {
      "city": "Miami",
      "latitude": 25.7703,
      "longitude": -80.2072,
      "session_hits": 3
    },
    {
      "city": "Stuart",
      "latitude": 27.1415,
      "longitude": -80.2018,
      "session_hits": 1
    },
    {
      "city": "Burlington",
      "latitude": 43.4327,
      "longitude": -79.8709,
      "session_hits": 2
    },
    {
      "city": "Mississauga",
      "latitude": 43.6307,
      "longitude": -79.7072,
      "session_hits": 1
    },
    {
      "city": "Barrie",
      "latitude": 44.3546,
      "longitude": -79.6889,
      "session_hits": 1
    },
    {
      "city": "Mississauga",
      "latitude": 43.5792,
      "longitude": -79.6591,
      "session_hits": 1
    },
    {
      "city": "Vaughan",
      "latitude": 43.8304,
      "longitude": -79.504,
      "session_hits": 1
    },
    {
      "city": "Toronto",
      "latitude": 43.6653,
      "longitude": -79.4343,
      "session_hits": 1
    },
    {
      "city": "Toronto",
      "latitude": 43.7687,
      "longitude": -79.4109,
      "session_hits": 1
    },
    {
      "city": "Markham",
      "latitude": 43.9016,
      "longitude": -79.3427,
      "session_hits": 1
    },
    {
      "city": "Scarborough",
      "latitude": 43.7922,
      "longitude": -79.1523,
      "session_hits": 1
    },
    {
      "city": "Apex",
      "latitude": 35.7178,
      "longitude": -78.8428,
      "session_hits": 5
    },
    {
      "city": "Oshawa",
      "latitude": 43.9251,
      "longitude": -78.8287,
      "session_hits": 1
    },
    {
      "city": "Buffalo",
      "latitude": 42.9297,
      "longitude": -78.7434,
      "session_hits": 1
    },
    {
      "city": "Rochester",
      "latitude": 43.1503,
      "longitude": -77.5881,
      "session_hits": 1
    },
    {
      "city": "Richmond",
      "latitude": 37.4365,
      "longitude": -77.4807,
      "session_hits": 1
    },
    {
      "city": "Richmond",
      "latitude": 37.4928,
      "longitude": -77.47,
      "session_hits": 1
    },
    {
      "city": "Frederick",
      "latitude": 39.3641,
      "longitude": -77.4622,
      "session_hits": 1
    },
    {
      "city": "Fairfield",
      "latitude": 39.7837,
      "longitude": -77.3584,
      "session_hits": 1
    },
    {
      "city": "Fairfax",
      "latitude": 38.8616,
      "longitude": -77.2663,
      "session_hits": 2
    },
    {
      "city": "Vienna",
      "latitude": 38.8921,
      "longitude": -77.2522,
      "session_hits": 2
    },
    {
      "city": "New Cumberland",
      "latitude": 40.2323,
      "longitude": -76.8847,
      "session_hits": 1
    },
    {
      "city": "Catonsville",
      "latitude": 39.2812,
      "longitude": -76.7406,
      "session_hits": 2
    },
    {
      "city": "Hershey",
      "latitude": 40.2859,
      "longitude": -76.6502,
      "session_hits": 1
    },
    {
      "city": "Liverpool",
      "latitude": 43.1493,
      "longitude": -76.2221,
      "session_hits": 1
    },
    {
      "city": "New Castle",
      "latitude": 39.5929,
      "longitude": -75.6515,
      "session_hits": 2
    },
    {
      "city": "Chester Springs",
      "latitude": 40.0951,
      "longitude": -75.6169,
      "session_hits": 1
    },
    {
      "city": "Ottawa",
      "latitude": 45.4512,
      "longitude": -75.6033,
      "session_hits": 1
    },
    {
      "city": "Norristown",
      "latitude": 40.1435,
      "longitude": -75.3779,
      "session_hits": 1
    },
    {
      "city": "Lansdale",
      "latitude": 40.2363,
      "longitude": -75.296,
      "session_hits": 2
    },
    {
      "city": "Doylestown",
      "latitude": 40.3061,
      "longitude": -75.1483,
      "session_hits": 1
    },
    {
      "city": "Audubon",
      "latitude": 39.885,
      "longitude": -75.0776,
      "session_hits": 1
    },
    {
      "city": "Millville",
      "latitude": 39.4021,
      "longitude": -75.0393,
      "session_hits": 1
    },
    {
      "city": "Vineland",
      "latitude": 39.4826,
      "longitude": -75.0027,
      "session_hits": 1
    },
    {
      "city": "Burlington",
      "latitude": 40.0713,
      "longitude": -74.8449,
      "session_hits": 1
    },
    {
      "city": "Ewing",
      "latitude": 40.2651,
      "longitude": -74.8006,
      "session_hits": 1
    },
    {
      "city": "Skillman",
      "latitude": 40.4201,
      "longitude": -74.7146,
      "session_hits": 1
    },
    {
      "city": "Princeton",
      "latitude": 40.3699,
      "longitude": -74.6381,
      "session_hits": 1
    },
    {
      "city": "Hillsborough",
      "latitude": 40.479,
      "longitude": -74.6273,
      "session_hits": 1
    },
    {
      "city": "East Windsor",
      "latitude": 40.266,
      "longitude": -74.5217,
      "session_hits": 2
    },
    {
      "city": "Middlesex",
      "latitude": 40.5738,
      "longitude": -74.4974,
      "session_hits": 1
    },
    {
      "city": "Middletown",
      "latitude": 41.4535,
      "longitude": -74.4774,
      "session_hits": 1
    },
    {
      "city": "Atlantic City",
      "latitude": 39.363,
      "longitude": -74.4324,
      "session_hits": 1
    },
    {
      "city": "Hoffman",
      "latitude": 40.3209,
      "longitude": -74.4208,
      "session_hits": 2
    },
    {
      "city": "Jersey City",
      "latitude": 40.7467,
      "longitude": -74.0574,
      "session_hits": 1
    },
    {
      "city": "Jersey City",
      "latitude": 40.7182,
      "longitude": -74.0476,
      "session_hits": 1
    },
    {
      "city": "Congers",
      "latitude": 41.1482,
      "longitude": -73.9394,
      "session_hits": 1
    },
    {
      "city": "Wappingers Falls",
      "latitude": 41.5965,
      "longitude": -73.911,
      "session_hits": 1
    },
    {
      "city": "Montreal",
      "latitude": 45.5191,
      "longitude": -73.6852,
      "session_hits": 1
    },
    {
      "city": "Montreal",
      "latitude": 45.5934,
      "longitude": -73.6418,
      "session_hits": 1
    },
    {
      "city": "Hicksville",
      "latitude": 40.7684,
      "longitude": -73.5254,
      "session_hits": 1
    },
    {
      "city": "Fairfield",
      "latitude": 41.1682,
      "longitude": -73.2689,
      "session_hits": 1
    },
    {
      "city": "Waterbury",
      "latitude": 41.5774,
      "longitude": -73.0245,
      "session_hits": 1
    },
    {
      "city": "Worcester",
      "latitude": 42.2435,
      "longitude": -71.8368,
      "session_hits": 1
    },
    {
      "city": "Shrewsbury",
      "latitude": 42.2831,
      "longitude": -71.7237,
      "session_hits": 2
    },
    {
      "city": "Providence",
      "latitude": 41.8307,
      "longitude": -71.3982,
      "session_hits": 1
    },
    {
      "city": "Billerica",
      "latitude": 42.5511,
      "longitude": -71.256,
      "session_hits": 2
    },
    {
      "city": "Chaguanas",
      "latitude": 10.5167,
      "longitude": -61.4167,
      "session_hits": 1
    },
    {
      "city": "St. John's",
      "latitude": 47.5982,
      "longitude": -52.6903,
      "session_hits": 1
    },
    {
      "city": "Milton Keynes",
      "latitude": 51.9582,
      "longitude": -0.5872,
      "session_hits": 1
    },
    {
      "city": "London",
      "latitude": 51.5164,
      "longitude": -0.093,
      "session_hits": 1
    },
    {
      "city": "Jeddah",
      "latitude": 21.4913,
      "longitude": 39.1841,
      "session_hits": 1
    },
    {
      "city": "Victoria",
      "latitude": -4.616,
      "longitude": 55.4461,
      "session_hits": 2
    },
    {
      "city": "Ajman",
      "latitude": 25.3958,
      "longitude": 55.4772,
      "session_hits": 2
    },
    {
      "city": "Ras al-Khaimah",
      "latitude": 25.7935,
      "longitude": 55.944,
      "session_hits": 1
    },
    {
      "city": "Vacoas",
      "latitude": -20.2966,
      "longitude": 57.4749,
      "session_hits": 2
    },
    {
      "city": "Centre de Flacq",
      "latitude": -20.1926,
      "longitude": 57.7114,
      "session_hits": 4
    },
    {
      "city": "Muscat",
      "latitude": 23.578,
      "longitude": 58.4021,
      "session_hits": 7
    },
    {
      "city": "G\u0101ndh\u012bdh\u0101m",
      "latitude": 23.0803,
      "longitude": 70.1341,
      "session_hits": 1
    },
    {
      "city": "Ver\u0101val",
      "latitude": 20.9094,
      "longitude": 70.364,
      "session_hits": 1
    },
    {
      "city": "Deesa",
      "latitude": 24.2597,
      "longitude": 72.1855,
      "session_hits": 1
    },
    {
      "city": "",
      "latitude": 23.0276,
      "longitude": 72.5871,
      "session_hits": 37
    },
    {
      "city": "Gandhinagar",
      "latitude": 23.2167,
      "longitude": 72.6833,
      "session_hits": 14
    },
    {
      "city": "Vir\u0101r",
      "latitude": 19.46,
      "longitude": 72.8097,
      "session_hits": 8
    },
    {
      "city": "Surat",
      "latitude": 21.1981,
      "longitude": 72.8298,
      "session_hits": 705
    },
    {
      "city": "Th\u0101ne",
      "latitude": 19.1963,
      "longitude": 72.9675,
      "session_hits": 329
    },
    {
      "city": "Bhar\u016bch",
      "latitude": 21.7003,
      "longitude": 72.9782,
      "session_hits": 5
    },
    {
      "city": "Umreth",
      "latitude": 22.6955,
      "longitude": 73.1109,
      "session_hits": 2
    },
    {
      "city": "Kaly\u0101n",
      "latitude": 19.2463,
      "longitude": 73.1315,
      "session_hits": 23
    },
    {
      "city": "Bikaner",
      "latitude": 28.0175,
      "longitude": 73.3193,
      "session_hits": 1
    },
    {
      "city": "Nashik",
      "latitude": 20.0024,
      "longitude": 73.7945,
      "session_hits": 263
    },
    {
      "city": "Panjim",
      "latitude": 15.5016,
      "longitude": 73.8234,
      "session_hits": 46
    },
    {
      "city": "Pune",
      "latitude": 18.5211,
      "longitude": 73.8502,
      "session_hits": 3585
    },
    {
      "city": "Dabolim",
      "latitude": 15.4023,
      "longitude": 73.8572,
      "session_hits": 1
    },
    {
      "city": "Wai",
      "latitude": 17.9512,
      "longitude": 73.8923,
      "session_hits": 7
    },
    {
      "city": "Kharadi",
      "latitude": 18.5588,
      "longitude": 73.9446,
      "session_hits": 1
    },
    {
      "city": "Mardol",
      "latitude": 15.4367,
      "longitude": 73.971,
      "session_hits": 7
    },
    {
      "city": "Ponda",
      "latitude": 15.4032,
      "longitude": 74.0185,
      "session_hits": 3
    },
    {
      "city": "Curtorim",
      "latitude": 15.2785,
      "longitude": 74.0236,
      "session_hits": 1
    },
    {
      "city": "Lahore",
      "latitude": 31.5826,
      "longitude": 74.3276,
      "session_hits": 2
    },
    {
      "city": "Gadhinglaj",
      "latitude": 16.2208,
      "longitude": 74.3584,
      "session_hits": 3
    },
    {
      "city": "Udupi",
      "latitude": 13.3318,
      "longitude": 74.7454,
      "session_hits": 47
    },
    {
      "city": "Patti",
      "latitude": 31.2803,
      "longitude": 74.8651,
      "session_hits": 1
    },
    {
      "city": "K\u0101saragod",
      "latitude": 12.4942,
      "longitude": 74.9829,
      "session_hits": 8
    },
    {
      "city": "Hubli",
      "latitude": 15.3439,
      "longitude": 75.133,
      "session_hits": 20
    },
    {
      "city": "T\u012brthahalli",
      "latitude": 13.6845,
      "longitude": 75.2464,
      "session_hits": 8
    },
    {
      "city": "Koppa",
      "latitude": 13.5274,
      "longitude": 75.3606,
      "session_hits": 1
    },
    {
      "city": "Fateh\u0101b\u0101d",
      "latitude": 29.517,
      "longitude": 75.4585,
      "session_hits": 2
    },
    {
      "city": "Fatehgarh",
      "latitude": 29.8724,
      "longitude": 75.4976,
      "session_hits": 1
    },
    {
      "city": "Jalandhar",
      "latitude": 31.33,
      "longitude": 75.5844,
      "session_hits": 17
    },
    {
      "city": "Kozhikode",
      "latitude": 11.2448,
      "longitude": 75.7721,
      "session_hits": 49
    },
    {
      "city": "Kota",
      "latitude": 25.1843,
      "longitude": 75.8353,
      "session_hits": 7
    },
    {
      "city": "Sangrur",
      "latitude": 30.2446,
      "longitude": 75.848,
      "session_hits": 8
    },
    {
      "city": "Solapur",
      "latitude": 17.6735,
      "longitude": 75.9051,
      "session_hits": 31
    },
    {
      "city": "Hoshi\u0101rpur",
      "latitude": 31.5404,
      "longitude": 75.9135,
      "session_hits": 2
    },
    {
      "city": "K\u014dttakkal",
      "latitude": 11.0008,
      "longitude": 76.0138,
      "session_hits": 3
    },
    {
      "city": "Malappuram",
      "latitude": 11.0341,
      "longitude": 76.0769,
      "session_hits": 38
    },
    {
      "city": "Wayanad",
      "latitude": 11.6032,
      "longitude": 76.0793,
      "session_hits": 1
    },
    {
      "city": "Samr\u0101la",
      "latitude": 30.8414,
      "longitude": 76.1997,
      "session_hits": 1
    },
    {
      "city": "Ottapalam",
      "latitude": 10.7686,
      "longitude": 76.3782,
      "session_hits": 3
    },
    {
      "city": "Pati\u0101la",
      "latitude": 30.3388,
      "longitude": 76.3906,
      "session_hits": 5
    },
    {
      "city": "Kalady",
      "latitude": 10.1666,
      "longitude": 76.446,
      "session_hits": 2
    },
    {
      "city": "Muvattupuzha",
      "latitude": 9.9834,
      "longitude": 76.5718,
      "session_hits": 5
    },
    {
      "city": "Kollam",
      "latitude": 8.8814,
      "longitude": 76.585,
      "session_hits": 51
    },
    {
      "city": "Rew\u0101ri",
      "latitude": 28.193,
      "longitude": 76.6124,
      "session_hits": 3
    },
    {
      "city": "Palakkad",
      "latitude": 10.7739,
      "longitude": 76.6487,
      "session_hits": 8
    },
    {
      "city": "Manimala",
      "latitude": 9.4824,
      "longitude": 76.7464,
      "session_hits": 4
    },
    {
      "city": "Coonoor",
      "latitude": 11.3455,
      "longitude": 76.7827,
      "session_hits": 6
    },
    {
      "city": "Pathan\u0101mthitta",
      "latitude": 9.2612,
      "longitude": 76.7833,
      "session_hits": 8
    },
    {
      "city": "Panchkula",
      "latitude": 30.6954,
      "longitude": 76.8524,
      "session_hits": 7
    },
    {
      "city": "Almaty",
      "latitude": 43.25,
      "longitude": 76.9167,
      "session_hits": 1
    },
    {
      "city": "Bahadurgarh",
      "latitude": 28.6929,
      "longitude": 76.9356,
      "session_hits": 1
    },
    {
      "city": "Thiruvananthapuram",
      "latitude": 8.4832,
      "longitude": 76.9458,
      "session_hits": 162
    },
    {
      "city": "Pollachi",
      "latitude": 10.6552,
      "longitude": 77.0128,
      "session_hits": 2
    },
    {
      "city": "Gurugram",
      "latitude": 28.4597,
      "longitude": 77.0282,
      "session_hits": 183
    },
    {
      "city": "Shimla",
      "latitude": 31.1034,
      "longitude": 77.1659,
      "session_hits": 19
    },
    {
      "city": "Kuzhithurai",
      "latitude": 8.3165,
      "longitude": 77.1882,
      "session_hits": 1
    },
    {
      "city": "Marthandam",
      "latitude": 8.305,
      "longitude": 77.2191,
      "session_hits": 1
    },
    {
      "city": "Noida",
      "latitude": 28.5759,
      "longitude": 77.3345,
      "session_hits": 293
    },
    {
      "city": "Hodal",
      "latitude": 27.892,
      "longitude": 77.3642,
      "session_hits": 3
    },
    {
      "city": "Indirapuram",
      "latitude": 28.6435,
      "longitude": 77.368,
      "session_hits": 1
    },
    {
      "city": "NandiniLayout",
      "latitude": 13.0134,
      "longitude": 77.5356,
      "session_hits": 2
    },
    {
      "city": "Bengaluru",
      "latitude": 12.9753,
      "longitude": 77.591,
      "session_hits": 4049
    },
    {
      "city": "Anantapur",
      "latitude": 14.6769,
      "longitude": 77.6124,
      "session_hits": 5
    },
    {
      "city": "Tirunelveli",
      "latitude": 8.7272,
      "longitude": 77.687,
      "session_hits": 4
    },
    {
      "city": "Kovilpatti",
      "latitude": 9.1737,
      "longitude": 77.8694,
      "session_hits": 1
    },
    {
      "city": "Karur",
      "latitude": 10.9536,
      "longitude": 78.0812,
      "session_hits": 20
    },
    {
      "city": "Yavatmal",
      "latitude": 20.3944,
      "longitude": 78.1291,
      "session_hits": 4
    },
    {
      "city": "Salem",
      "latitude": 11.6602,
      "longitude": 78.1532,
      "session_hits": 70
    },
    {
      "city": "Banjara Hills",
      "latitude": 17.4163,
      "longitude": 78.4371,
      "session_hits": 5
    },
    {
      "city": "Amroha",
      "latitude": 28.8984,
      "longitude": 78.4741,
      "session_hits": 1
    },
    {
      "city": "Ahilyanagar",
      "latitude": 21.173,
      "longitude": 78.5652,
      "session_hits": 2
    },
    {
      "city": "Mor\u0101d\u0101b\u0101d",
      "latitude": 28.8395,
      "longitude": 78.7699,
      "session_hits": 4
    },
    {
      "city": "Gudiyatham",
      "latitude": 12.9407,
      "longitude": 78.8754,
      "session_hits": 1
    },
    {
      "city": "",
      "latitude": 21.9974,
      "longitude": 79.0011,
      "session_hits": 3117
    },
    {
      "city": "Chittoor",
      "latitude": 13.2057,
      "longitude": 79.0994,
      "session_hits": 4
    },
    {
      "city": "Vellore",
      "latitude": 12.9202,
      "longitude": 79.1306,
      "session_hits": 11
    },
    {
      "city": "Rudrapur",
      "latitude": 28.9742,
      "longitude": 79.4034,
      "session_hits": 33
    },
    {
      "city": "Damoh",
      "latitude": 23.8342,
      "longitude": 79.4429,
      "session_hits": 1
    },
    {
      "city": "Nainital",
      "latitude": 29.4012,
      "longitude": 79.4483,
      "session_hits": 1
    },
    {
      "city": "Suri\u0101pet",
      "latitude": 17.1454,
      "longitude": 79.6154,
      "session_hits": 8
    },
    {
      "city": "Mayiladuthurai",
      "latitude": 11.1063,
      "longitude": 79.655,
      "session_hits": 2
    },
    {
      "city": "Kanchipuram",
      "latitude": 12.8378,
      "longitude": 79.6973,
      "session_hits": 3
    },
    {
      "city": "Tumsar",
      "latitude": 21.3872,
      "longitude": 79.7344,
      "session_hits": 11
    },
    {
      "city": "Colombo",
      "latitude": 6.9318,
      "longitude": 79.8863,
      "session_hits": 1
    },
    {
      "city": "Maharagama",
      "latitude": 6.8457,
      "longitude": 79.9187,
      "session_hits": 1
    },
    {
      "city": "Khammam",
      "latitude": 17.2531,
      "longitude": 80.1421,
      "session_hits": 1
    },
    {
      "city": "",
      "latitude": 16.5033,
      "longitude": 80.6465,
      "session_hits": 1
    },
    {
      "city": "Mah\u0101samund",
      "latitude": 21.1061,
      "longitude": 82.0908,
      "session_hits": 8
    },
    {
      "city": "Yanam",
      "latitude": 16.7312,
      "longitude": 82.2167,
      "session_hits": 1
    },
    {
      "city": "Azamgarh",
      "latitude": 26.0682,
      "longitude": 83.1886,
      "session_hits": 1
    },
    {
      "city": "Dharmapuri",
      "latitude": 18.0876,
      "longitude": 83.4124,
      "session_hits": 1
    },
    {
      "city": "Patna",
      "latitude": 25.5943,
      "longitude": 85.1352,
      "session_hits": 211
    },
    {
      "city": "",
      "latitude": 25.5943,
      "longitude": 85.1352,
      "session_hits": 59
    },
    {
      "city": "Sam\u0101stipur",
      "latitude": 25.8684,
      "longitude": 85.7827,
      "session_hits": 2
    },
    {
      "city": "Balasore",
      "latitude": 21.4938,
      "longitude": 86.9383,
      "session_hits": 3
    },
    {
      "city": "Medin\u012bpur",
      "latitude": 22.4187,
      "longitude": 87.322,
      "session_hits": 79
    },
    {
      "city": "M\u0101y\u0101pur",
      "latitude": 22.4161,
      "longitude": 88.1135,
      "session_hits": 1
    },
    {
      "city": "Darjeeling",
      "latitude": 27.0339,
      "longitude": 88.2712,
      "session_hits": 2
    },
    {
      "city": "Namchi",
      "latitude": 27.1612,
      "longitude": 88.3655,
      "session_hits": 1
    },
    {
      "city": "Naih\u0101ti",
      "latitude": 22.893,
      "longitude": 88.4109,
      "session_hits": 1
    },
    {
      "city": "Siliguri",
      "latitude": 26.7084,
      "longitude": 88.4318,
      "session_hits": 21
    },
    {
      "city": "R\u0101n\u0101gh\u0101t",
      "latitude": 23.1806,
      "longitude": 88.5642,
      "session_hits": 6
    },
    {
      "city": "Dhaka",
      "latitude": 23.8672,
      "longitude": 90.3927,
      "session_hits": 1
    },
    {
      "city": "Dispur",
      "latitude": 26.1404,
      "longitude": 91.7935,
      "session_hits": 1
    },
    {
      "city": "Chittagong",
      "latitude": 22.3919,
      "longitude": 91.8335,
      "session_hits": 2
    },
    {
      "city": "Haddo",
      "latitude": 11.6833,
      "longitude": 92.7167,
      "session_hits": 2
    },
    {
      "city": "Itanagar",
      "latitude": 27.0802,
      "longitude": 93.6115,
      "session_hits": 1
    },
    {
      "city": "Phuket",
      "latitude": 7.9833,
      "longitude": 98.3662,
      "session_hits": 1
    },
    {
      "city": "Sungai Buloh",
      "latitude": 3.1621,
      "longitude": 101.5976,
      "session_hits": 1
    },
    {
      "city": "Kuala Lumpur",
      "latitude": 3.1427,
      "longitude": 101.6951,
      "session_hits": 1
    },
    {
      "city": "Kuala Lumpur",
      "latitude": 3.1686,
      "longitude": 101.7035,
      "session_hits": 1
    },
    {
      "city": "Vientiane",
      "latitude": 17.9641,
      "longitude": 102.5987,
      "session_hits": 1
    },
    {
      "city": "Singapore",
      "latitude": 1.2923,
      "longitude": 103.8195,
      "session_hits": 2
    },
    {
      "city": "Singapore",
      "latitude": 1.2835,
      "longitude": 103.8376,
      "session_hits": 1
    },
    {
      "city": "Singapore",
      "latitude": 1.3248,
      "longitude": 103.8566,
      "session_hits": 4
    },
    {
      "city": "Singapore",
      "latitude": 1.3856,
      "longitude": 103.8658,
      "session_hits": 4
    },
    {
      "city": "Singapore",
      "latitude": 1.4003,
      "longitude": 103.875,
      "session_hits": 5
    },
    {
      "city": "Singapore",
      "latitude": 1.3065,
      "longitude": 103.8899,
      "session_hits": 3
    },
    {
      "city": "Hanoi",
      "latitude": 21.0184,
      "longitude": 105.8461,
      "session_hits": 2
    },
    {
      "city": "Depok",
      "latitude": -6.3756,
      "longitude": 106.8258,
      "session_hits": 1
    },
    {
      "city": "",
      "latitude": -6.175,
      "longitude": 106.8286,
      "session_hits": 1
    },
    {
      "city": "",
      "latitude": 22.2578,
      "longitude": 114.1657,
      "session_hits": 16
    },
    {
      "city": "Bandar Seri Begawan",
      "latitude": 4.8852,
      "longitude": 114.9468,
      "session_hits": 1
    },
    {
      "city": "Perth",
      "latitude": -31.9872,
      "longitude": 115.8657,
      "session_hits": 1
    },
    {
      "city": "Perth",
      "latitude": -31.9647,
      "longitude": 115.9075,
      "session_hits": 1
    },
    {
      "city": "Quezon City",
      "latitude": 14.6263,
      "longitude": 121.0399,
      "session_hits": 1
    },
    {
      "city": "Pasig",
      "latitude": 14.5688,
      "longitude": 121.0827,
      "session_hits": 1
    },
    {
      "city": "",
      "latitude": 34.693,
      "longitude": 135.5005,
      "session_hits": 1
    },
    {
      "city": "Kyoto",
      "latitude": 35.0231,
      "longitude": 135.752,
      "session_hits": 1
    },
    {
      "city": "Adelaide",
      "latitude": -34.8765,
      "longitude": 138.5385,
      "session_hits": 1
    },
    {
      "city": "Hiratsuka",
      "latitude": 35.3222,
      "longitude": 139.3403,
      "session_hits": 2
    },
    {
      "city": "Tokyo",
      "latitude": 35.6893,
      "longitude": 139.6899,
      "session_hits": 6
    },
    {
      "city": "Kawaguchi",
      "latitude": 35.7949,
      "longitude": 139.7334,
      "session_hits": 2
    },
    {
      "city": "Kameido",
      "latitude": 35.703,
      "longitude": 139.8308,
      "session_hits": 3
    },
    {
      "city": "Darley",
      "latitude": -37.6517,
      "longitude": 144.4296,
      "session_hits": 1
    },
    {
      "city": "Melbourne",
      "latitude": -37.9728,
      "longitude": 144.5643,
      "session_hits": 1
    },
    {
      "city": "Melbourne",
      "latitude": -37.7444,
      "longitude": 144.7597,
      "session_hits": 1
    },
    {
      "city": "Melbourne",
      "latitude": -37.5334,
      "longitude": 144.9452,
      "session_hits": 3
    },
    {
      "city": "Melbourne",
      "latitude": -37.8201,
      "longitude": 144.9636,
      "session_hits": 2
    },
    {
      "city": "Melbourne",
      "latitude": -37.9189,
      "longitude": 145.126,
      "session_hits": 1
    },
    {
      "city": "Sydney",
      "latitude": -33.7936,
      "longitude": 150.9133,
      "session_hits": 6
    },
    {
      "city": "Sydney",
      "latitude": -33.8322,
      "longitude": 151.0164,
      "session_hits": 1
    },
    {
      "city": "Sydney",
      "latitude": -33.8726,
      "longitude": 151.0387,
      "session_hits": 3
    },
    {
      "city": "Sydney",
      "latitude": -33.8252,
      "longitude": 151.0849,
      "session_hits": 3
    },
    {
      "city": "Sydney",
      "latitude": -33.7972,
      "longitude": 151.0895,
      "session_hits": 1
    },
    {
      "city": "Sydney",
      "latitude": -33.7168,
      "longitude": 151.1175,
      "session_hits": 1
    },
    {
      "city": "Sydney",
      "latitude": -33.8512,
      "longitude": 151.1503,
      "session_hits": 2
    },
    {
      "city": "Sydney",
      "latitude": -33.875,
      "longitude": 151.1608,
      "session_hits": 1
    },
    {
      "city": "Sydney",
      "latitude": -33.901,
      "longitude": 151.1895,
      "session_hits": 2
    },
    {
      "city": "Sydney",
      "latitude": -33.883,
      "longitude": 151.2127,
      "session_hits": 1
    },
    {
      "city": "Brisbane",
      "latitude": -27.3778,
      "longitude": 152.9977,
      "session_hits": 1
    },
    {
      "city": "Brisbane",
      "latitude": -27.4098,
      "longitude": 153.0578,
      "session_hits": 3
    },
    {
      "city": "Brisbane",
      "latitude": -27.4794,
      "longitude": 153.084,
      "session_hits": 2
    },
    {
      "city": "Auckland",
      "latitude": -36.8214,
      "longitude": 174.7069,
      "session_hits": 3
    },
    {
      "city": "Auckland",
      "latitude": -36.8504,
      "longitude": 174.7675,
      "session_hits": 3
    },
    { "city": null, "latitude": null, "longitude": null, "session_hits": 5 },
    {
      "city": "Kailua-Kona",
      "latitude": 19.6531,
      "longitude": -155.9798,
      "session_hits": 1
    },
    {
      "city": "Victoria",
      "latitude": 48.4983,
      "longitude": -123.4005,
      "session_hits": 1
    },
    {
      "city": "Hillsboro",
      "latitude": 45.4998,
      "longitude": -122.9586,
      "session_hits": 1
    },
    {
      "city": "Surrey",
      "latitude": 49.1092,
      "longitude": -122.8604,
      "session_hits": 1
    },
    {
      "city": "Portland",
      "latitude": 45.5472,
      "longitude": -122.6417,
      "session_hits": 1
    },
    {
      "city": "Langley",
      "latitude": 49.1251,
      "longitude": -122.6224,
      "session_hits": 1
    },
    {
      "city": "Daly City",
      "latitude": 37.6811,
      "longitude": -122.4806,
      "session_hits": 1
    },
    {
      "city": "Belvedere Tiburon",
      "latitude": 37.883,
      "longitude": -122.4676,
      "session_hits": 1
    },
    {
      "city": "San Francisco",
      "latitude": 37.78,
      "longitude": -122.465,
      "session_hits": 1
    },
    {
      "city": "Tacoma",
      "latitude": 47.2565,
      "longitude": -122.4421,
      "session_hits": 1
    },
    {
      "city": "Bellingham",
      "latitude": 48.6914,
      "longitude": -122.4133,
      "session_hits": 1
    },
    {
      "city": "Richmond",
      "latitude": 37.9387,
      "longitude": -122.3661,
      "session_hits": 1
    },
    {
      "city": "Seattle",
      "latitude": 47.6733,
      "longitude": -122.3426,
      "session_hits": 1
    },
    {
      "city": "Seattle",
      "latitude": 47.6859,
      "longitude": -122.2994,
      "session_hits": 3
    },
    {
      "city": "Seattle",
      "latitude": 47.5364,
      "longitude": -122.278,
      "session_hits": 2
    },
    {
      "city": "San Mateo",
      "latitude": 37.5549,
      "longitude": -122.2708,
      "session_hits": 3
    },
    {
      "city": "Oakland",
      "latitude": 37.8075,
      "longitude": -122.2644,
      "session_hits": 2
    },
    {
      "city": "Oakland",
      "latitude": 37.7906,
      "longitude": -122.2412,
      "session_hits": 3
    },
    {
      "city": "Oakland",
      "latitude": 37.8043,
      "longitude": -122.2156,
      "session_hits": 2
    },
    {
      "city": "Palo Alto",
      "latitude": 37.4333,
      "longitude": -122.1878,
      "session_hits": 1
    },
    {
      "city": "Bellevue",
      "latitude": 47.5579,
      "longitude": -122.1633,
      "session_hits": 2
    },
    {
      "city": "San Lorenzo",
      "latitude": 37.6787,
      "longitude": -122.127,
      "session_hits": 1
    },
    {
      "city": "Redmond",
      "latitude": 47.6711,
      "longitude": -122.1253,
      "session_hits": 8
    },
    {
      "city": "Palo Alto",
      "latitude": 37.4152,
      "longitude": -122.1224,
      "session_hits": 7
    },
    {
      "city": "Pleasant Hill",
      "latitude": 37.948,
      "longitude": -122.0608,
      "session_hits": 4
    },
    {
      "city": "Maple Valley",
      "latitude": 47.3845,
      "longitude": -122.0582,
      "session_hits": 1
    },
    {
      "city": "Scotts Valley",
      "latitude": 37.0609,
      "longitude": -122.0198,
      "session_hits": 3
    },
    {
      "city": "Issaquah",
      "latitude": 47.5583,
      "longitude": -122.0021,
      "session_hits": 1
    },
    {
      "city": "Enumclaw",
      "latitude": 47.2043,
      "longitude": -121.9915,
      "session_hits": 1
    },
    {
      "city": "Concord",
      "latitude": 37.9545,
      "longitude": -121.9759,
      "session_hits": 1
    },
    {
      "city": "Santa Clara",
      "latitude": 37.3526,
      "longitude": -121.9541,
      "session_hits": 2
    },
    {
      "city": "San Jose",
      "latitude": 37.2941,
      "longitude": -121.8996,
      "session_hits": 5
    },
    {
      "city": "Milpitas",
      "latitude": 37.4361,
      "longitude": -121.8952,
      "session_hits": 8
    },
    {
      "city": "Monterey",
      "latitude": 36.5802,
      "longitude": -121.8443,
      "session_hits": 2
    },
    {
      "city": "Snoqualmie",
      "latitude": 47.5291,
      "longitude": -121.8231,
      "session_hits": 1
    },
    {
      "city": "Antioch",
      "latitude": 37.9895,
      "longitude": -121.8023,
      "session_hits": 1
    },
    {
      "city": "Antioch",
      "latitude": 37.9648,
      "longitude": -121.77,
      "session_hits": 4
    },
    {
      "city": "Klamath Falls",
      "latitude": 42.1921,
      "longitude": -121.7233,
      "session_hits": 1
    },
    {
      "city": "Brentwood",
      "latitude": 37.9285,
      "longitude": -121.6881,
      "session_hits": 3
    },
    {
      "city": "Morgan Hill",
      "latitude": 37.1357,
      "longitude": -121.6502,
      "session_hits": 1
    },
    {
      "city": "Gilroy",
      "latitude": 37.0156,
      "longitude": -121.5779,
      "session_hits": 2
    },
    {
      "city": "Roseville",
      "latitude": 38.768,
      "longitude": -121.3349,
      "session_hits": 2
    },
    {
      "city": "Folsom",
      "latitude": 38.6711,
      "longitude": -121.1495,
      "session_hits": 3
    },
    {
      "city": "Reno",
      "latitude": 39.4987,
      "longitude": -119.8202,
      "session_hits": 1
    },
    {
      "city": "Oxnard",
      "latitude": 34.2149,
      "longitude": -119.1761,
      "session_hits": 1
    },
    {
      "city": "North Hills",
      "latitude": 34.2363,
      "longitude": -118.4798,
      "session_hits": 1
    },
    {
      "city": "Manhattan Beach",
      "latitude": 33.8899,
      "longitude": -118.4008,
      "session_hits": 1
    },
    {
      "city": "Redondo Beach",
      "latitude": 33.8303,
      "longitude": -118.3795,
      "session_hits": 1
    },
    {
      "city": "Torrance",
      "latitude": 33.8104,
      "longitude": -118.3531,
      "session_hits": 1
    },
    {
      "city": "Lynwood",
      "latitude": 33.9277,
      "longitude": -118.2034,
      "session_hits": 1
    },
    {
      "city": "Placentia",
      "latitude": 33.8744,
      "longitude": -117.8565,
      "session_hits": 6
    },
    {
      "city": "Tustin",
      "latitude": 33.7372,
      "longitude": -117.8232,
      "session_hits": 1
    },
    {
      "city": "Anaheim",
      "latitude": 33.8578,
      "longitude": -117.7869,
      "session_hits": 1
    },
    {
      "city": "Montclair",
      "latitude": 34.0731,
      "longitude": -117.6918,
      "session_hits": 1
    },
    {
      "city": "Mission Viejo",
      "latitude": 33.6117,
      "longitude": -117.6415,
      "session_hits": 3
    },
    {
      "city": "Spokane",
      "latitude": 47.6289,
      "longitude": -117.5513,
      "session_hits": 1
    },
    {
      "city": "Mira Loma",
      "latitude": 33.9952,
      "longitude": -117.5219,
      "session_hits": 1
    },
    {
      "city": "Riverside",
      "latitude": 34.0038,
      "longitude": -117.446,
      "session_hits": 1
    },
    {
      "city": "Riverside",
      "latitude": 33.9449,
      "longitude": -117.3834,
      "session_hits": 1
    },
    {
      "city": "San Diego",
      "latitude": 32.9511,
      "longitude": -117.2241,
      "session_hits": 2
    },
    {
      "city": "San Diego",
      "latitude": 32.9164,
      "longitude": -117.1393,
      "session_hits": 1
    },
    {
      "city": "San Diego",
      "latitude": 32.9167,
      "longitude": -117.0903,
      "session_hits": 1
    },
    {
      "city": "Yucca Valley",
      "latitude": 34.1619,
      "longitude": -116.4335,
      "session_hits": 3
    },
    {
      "city": "Calgary",
      "latitude": 51.2096,
      "longitude": -114.1313,
      "session_hits": 1
    },
    {
      "city": "Calgary",
      "latitude": 50.9129,
      "longitude": -114.1028,
      "session_hits": 1
    },
    {
      "city": "Calgary",
      "latitude": 50.9804,
      "longitude": -114.1015,
      "session_hits": 1
    },
    {
      "city": "Calgary",
      "latitude": 50.9265,
      "longitude": -113.9725,
      "session_hits": 1
    },
    {
      "city": "Edmonton",
      "latitude": 53.4179,
      "longitude": -113.5785,
      "session_hits": 1
    },
    {
      "city": "Edmonton",
      "latitude": 53.4144,
      "longitude": -113.416,
      "session_hits": 2
    },
    {
      "city": "Phoenix",
      "latitude": 33.5629,
      "longitude": -112.0519,
      "session_hits": 2
    },
    {
      "city": "West Valley City",
      "latitude": 40.6981,
      "longitude": -111.9999,
      "session_hits": 1
    },
    {
      "city": "Phoenix",
      "latitude": 33.4917,
      "longitude": -111.9837,
      "session_hits": 1
    },
    {
      "city": "Scottsdale",
      "latitude": 33.6194,
      "longitude": -111.9556,
      "session_hits": 1
    },
    {
      "city": "South Jordan",
      "latitude": 40.5582,
      "longitude": -111.9222,
      "session_hits": 1
    },
    {
      "city": "Queen Creek",
      "latitude": 33.2487,
      "longitude": -111.6343,
      "session_hits": 1
    },
    {
      "city": "Fraser",
      "latitude": 39.947,
      "longitude": -105.8122,
      "session_hits": 1
    },
    {
      "city": "Fort Collins",
      "latitude": 40.5447,
      "longitude": -105.1069,
      "session_hits": 2
    },
    {
      "city": "Regina",
      "latitude": 50.4084,
      "longitude": -104.6526,
      "session_hits": 1
    },
    {
      "city": "Lubbock",
      "latitude": 33.5716,
      "longitude": -101.8545,
      "session_hits": 1
    },
    {
      "city": "Iztapalapa",
      "latitude": 19.3491,
      "longitude": -99.0554,
      "session_hits": 2
    },
    {
      "city": "San Antonio",
      "latitude": 29.7055,
      "longitude": -98.4191,
      "session_hits": 1
    },
    {
      "city": "Austin",
      "latitude": 30.2107,
      "longitude": -97.9427,
      "session_hits": 1
    },
    {
      "city": "Austin",
      "latitude": 30.3768,
      "longitude": -97.8935,
      "session_hits": 1
    },
    {
      "city": "Austin",
      "latitude": 30.2424,
      "longitude": -97.767,
      "session_hits": 1
    },
    {
      "city": "Round Rock",
      "latitude": 30.5089,
      "longitude": -97.6796,
      "session_hits": 9
    },
    {
      "city": "Pflugerville",
      "latitude": 30.4421,
      "longitude": -97.6339,
      "session_hits": 3
    },
    {
      "city": "Fort Worth",
      "latitude": 32.6256,
      "longitude": -97.3632,
      "session_hits": 1
    },
    {
      "city": "Winnipeg",
      "latitude": 49.7874,
      "longitude": -97.0986,
      "session_hits": 1
    },
    {
      "city": "Irving",
      "latitude": 32.8666,
      "longitude": -96.9927,
      "session_hits": 2
    },
    {
      "city": "Carrollton",
      "latitude": 33.0036,
      "longitude": -96.8834,
      "session_hits": 5
    },
    {
      "city": "Dallas",
      "latitude": 32.7836,
      "longitude": -96.8674,
      "session_hits": 1
    },
    {
      "city": "Frisco",
      "latitude": 33.1494,
      "longitude": -96.828,
      "session_hits": 11
    },
    {
      "city": "Dallas",
      "latitude": 32.8131,
      "longitude": -96.8141,
      "session_hits": 1
    },
    {
      "city": "Plano",
      "latitude": 33.0326,
      "longitude": -96.7859,
      "session_hits": 2
    },
    {
      "city": "Plano",
      "latitude": 33.0225,
      "longitude": -96.729,
      "session_hits": 1
    },
    {
      "city": "Plano",
      "latitude": 33.0809,
      "longitude": -96.7241,
      "session_hits": 2
    },
    {
      "city": "College Station",
      "latitude": 30.5118,
      "longitude": -96.3171,
      "session_hits": 2
    },
    {
      "city": "Papillion",
      "latitude": 41.1523,
      "longitude": -96.0371,
      "session_hits": 1
    },
    {
      "city": "Richmond",
      "latitude": 29.5542,
      "longitude": -95.7325,
      "session_hits": 2
    },
    {
      "city": "Missouri City",
      "latitude": 29.572,
      "longitude": -95.54,
      "session_hits": 1
    },
    {
      "city": "Houston",
      "latitude": 29.7738,
      "longitude": -95.406,
      "session_hits": 1
    },
    {
      "city": "Pittsburg",
      "latitude": 32.9954,
      "longitude": -94.9658,
      "session_hits": 2
    },
    {
      "city": "Overland Park",
      "latitude": 38.8597,
      "longitude": -94.6611,
      "session_hits": 5
    },
    {
      "city": "Bentonville",
      "latitude": 36.3106,
      "longitude": -94.3493,
      "session_hits": 1
    },
    {
      "city": "Shreveport",
      "latitude": 32.3904,
      "longitude": -93.7117,
      "session_hits": 1
    },
    {
      "city": "Des Moines",
      "latitude": 41.6015,
      "longitude": -93.6127,
      "session_hits": 1
    },
    {
      "city": "Iowa City",
      "latitude": 41.6594,
      "longitude": -91.5265,
      "session_hits": 2
    },
    {
      "city": "Bettendorf",
      "latitude": 41.5245,
      "longitude": -90.5157,
      "session_hits": 1
    },
    {
      "city": "Peoria",
      "latitude": 40.772,
      "longitude": -89.6572,
      "session_hits": 2
    },
    {
      "city": "Hattiesburg",
      "latitude": 31.3145,
      "longitude": -89.3788,
      "session_hits": 1
    },
    {
      "city": "Aurora",
      "latitude": 41.7216,
      "longitude": -88.2534,
      "session_hits": 1
    },
    {
      "city": "Shorewood",
      "latitude": 41.52,
      "longitude": -88.2017,
      "session_hits": 1
    },
    {
      "city": "Morton Grove",
      "latitude": 42.0431,
      "longitude": -87.7899,
      "session_hits": 1
    },
    {
      "city": "Chicago",
      "latitude": 41.8883,
      "longitude": -87.7613,
      "session_hits": 1
    },
    {
      "city": "Cicero",
      "latitude": 41.8395,
      "longitude": -87.7555,
      "session_hits": 1
    },
    {
      "city": "Chicago",
      "latitude": 41.9703,
      "longitude": -87.664,
      "session_hits": 1
    },
    {
      "city": "Chicago",
      "latitude": 41.762,
      "longitude": -87.5703,
      "session_hits": 1
    },
    {
      "city": "Munster",
      "latitude": 41.5586,
      "longitude": -87.5019,
      "session_hits": 1
    },
    {
      "city": "Columbia",
      "latitude": 35.6174,
      "longitude": -87.0318,
      "session_hits": 1
    },
    {
      "city": "Nashville",
      "latitude": 36.2195,
      "longitude": -86.774,
      "session_hits": 2
    },
    {
      "city": "Carmel",
      "latitude": 39.9714,
      "longitude": -86.1295,
      "session_hits": 2
    },
    {
      "city": "Grand Rapids",
      "latitude": 43.0127,
      "longitude": -85.722,
      "session_hits": 1
    },
    {
      "city": "Louisville",
      "latitude": 38.1278,
      "longitude": -85.5741,
      "session_hits": 3
    },
    {
      "city": "Florence",
      "latitude": 38.9924,
      "longitude": -84.6462,
      "session_hits": 1
    },
    {
      "city": "Mableton",
      "latitude": 33.8187,
      "longitude": -84.5824,
      "session_hits": 1
    },
    {
      "city": "Cincinnati",
      "latitude": 39.1256,
      "longitude": -84.5127,
      "session_hits": 1
    },
    {
      "city": "Atlanta",
      "latitude": 33.7838,
      "longitude": -84.4455,
      "session_hits": 1
    },
    {
      "city": "Atlanta",
      "latitude": 33.8231,
      "longitude": -84.3258,
      "session_hits": 3
    },
    {
      "city": "Alpharetta",
      "latitude": 34.111,
      "longitude": -84.3025,
      "session_hits": 3
    },
    {
      "city": "Dayton",
      "latitude": 39.6062,
      "longitude": -84.1695,
      "session_hits": 1
    },
    {
      "city": "Snellville",
      "latitude": 33.8206,
      "longitude": -84.0229,
      "session_hits": 1
    },
    {
      "city": "Farmington Hills",
      "latitude": 42.5064,
      "longitude": -83.4069,
      "session_hits": 1
    },
    {
      "city": "Livonia",
      "latitude": 42.3975,
      "longitude": -83.3733,
      "session_hits": 1
    },
    {
      "city": "Livonia",
      "latitude": 42.4247,
      "longitude": -83.3618,
      "session_hits": 1
    },
    {
      "city": "Troy",
      "latitude": 42.5583,
      "longitude": -83.1805,
      "session_hits": 1
    },
    {
      "city": "Marion",
      "latitude": 40.5912,
      "longitude": -83.1258,
      "session_hits": 3
    },
    {
      "city": "Powell",
      "latitude": 40.1578,
      "longitude": -83.0752,
      "session_hits": 2
    },
    {
      "city": "Columbus",
      "latitude": 39.9625,
      "longitude": -83.0061,
      "session_hits": 1
    },
    {
      "city": "Sunbury",
      "latitude": 40.2426,
      "longitude": -82.8591,
      "session_hits": 1
    },
    {
      "city": "Belle River",
      "latitude": 42.3,
      "longitude": -82.7167,
      "session_hits": 1
    },
    {
      "city": "Tampa",
      "latitude": 28.0508,
      "longitude": -82.4484,
      "session_hits": 1
    },
    {
      "city": "Greenville",
      "latitude": 34.8017,
      "longitude": -82.3925,
      "session_hits": 1
    },
    {
      "city": "Sarnia",
      "latitude": 42.9547,
      "longitude": -82.281,
      "session_hits": 2
    },
    {
      "city": "Jacksonville",
      "latitude": 30.45,
      "longitude": -81.6624,
      "session_hits": 1
    },
    {
      "city": "Jacksonville",
      "latitude": 30.2903,
      "longitude": -81.5092,
      "session_hits": 1
    },
    {
      "city": "Sanford",
      "latitude": 28.7935,
      "longitude": -81.2868,
      "session_hits": 1
    },
    {
      "city": "Gastonia",
      "latitude": 35.2912,
      "longitude": -81.1943,
      "session_hits": 1
    },
    {
      "city": "St. Thomas",
      "latitude": 42.755,
      "longitude": -81.1821,
      "session_hits": 1
    },
    {
      "city": "Concord",
      "latitude": 35.4155,
      "longitude": -80.6143,
      "session_hits": 1
    },
    {
      "city": "Monroe",
      "latitude": 35.0221,
      "longitude": -80.5318,
      "session_hits": 1
    },
    {
      "city": "Kitchener",
      "latitude": 43.4325,
      "longitude": -80.4997,
      "session_hits": 1
    },
    {
      "city": "Hollywood",
      "latitude": 26.0276,
      "longitude": -80.2528,
      "session_hits": 1
    },
    {
      "city": "Pompano Beach",
      "latitude": 26.2681,
      "longitude": -80.2092,
      "session_hits": 1
    },
    {
      "city": "Fort Lauderdale",
      "latitude": 26.1481,
      "longitude": -80.2088,
      "session_hits": 1
    },
    {
      "city": "Waynesburg",
      "latitude": 39.8939,
      "longitude": -80.1773,
      "session_hits": 1
    },
    {
      "city": "Bridgeville",
      "latitude": 40.3472,
      "longitude": -80.1153,
      "session_hits": 1
    },
    {
      "city": "High Point",
      "latitude": 35.971,
      "longitude": -80.0079,
      "session_hits": 1
    },
    {
      "city": "Georgetown",
      "latitude": 43.6514,
      "longitude": -79.9143,
      "session_hits": 1
    },
    {
      "city": "Milton",
      "latitude": 43.5142,
      "longitude": -79.8845,
      "session_hits": 4
    },
    {
      "city": "Brampton",
      "latitude": 43.693,
      "longitude": -79.8365,
      "session_hits": 2
    },
    {
      "city": "Brampton",
      "latitude": 43.6249,
      "longitude": -79.7876,
      "session_hits": 6
    },
    {
      "city": "Brampton",
      "latitude": 43.7387,
      "longitude": -79.7271,
      "session_hits": 1
    },
    {
      "city": "Mississauga",
      "latitude": 43.5639,
      "longitude": -79.7172,
      "session_hits": 8
    },
    {
      "city": "Brampton",
      "latitude": 43.7941,
      "longitude": -79.7011,
      "session_hits": 1
    },
    {
      "city": "Mississauga",
      "latitude": 43.6192,
      "longitude": -79.6538,
      "session_hits": 2
    },
    {
      "city": "Bradford",
      "latitude": 44.1218,
      "longitude": -79.5645,
      "session_hits": 2
    },
    {
      "city": "Woodbridge",
      "latitude": 43.8419,
      "longitude": -79.5565,
      "session_hits": 1
    },
    {
      "city": "Toronto",
      "latitude": 43.6591,
      "longitude": -79.4626,
      "session_hits": 4
    },
    {
      "city": "North York",
      "latitude": 43.7908,
      "longitude": -79.4068,
      "session_hits": 2
    },
    {
      "city": "Toronto",
      "latitude": 43.6426,
      "longitude": -79.4002,
      "session_hits": 5
    },
    {
      "city": "Toronto",
      "latitude": 43.7523,
      "longitude": -79.3872,
      "session_hits": 1
    },
    {
      "city": "Toronto",
      "latitude": 43.7034,
      "longitude": -79.3072,
      "session_hits": 1
    },
    {
      "city": "Scarborough",
      "latitude": 43.7618,
      "longitude": -79.2703,
      "session_hits": 1
    },
    {
      "city": "Toronto",
      "latitude": 43.7693,
      "longitude": -79.2444,
      "session_hits": 1
    },
    {
      "city": "Scarborough",
      "latitude": 43.8109,
      "longitude": -79.1893,
      "session_hits": 1
    },
    {
      "city": "Ajax",
      "latitude": 43.8841,
      "longitude": -79.0607,
      "session_hits": 2
    },
    {
      "city": "Cary",
      "latitude": 35.8047,
      "longitude": -78.8881,
      "session_hits": 4
    },
    {
      "city": "Richmond",
      "latitude": 37.5147,
      "longitude": -77.5034,
      "session_hits": 1
    },
    {
      "city": "Ashburn",
      "latitude": 39.0469,
      "longitude": -77.4903,
      "session_hits": 7
    },
    {
      "city": "Greenville",
      "latitude": 35.6218,
      "longitude": -77.396,
      "session_hits": 2
    },
    {
      "city": "Burke",
      "latitude": 38.7913,
      "longitude": -77.2806,
      "session_hits": 2
    },
    {
      "city": "Gaithersburg",
      "latitude": 39.109,
      "longitude": -77.2489,
      "session_hits": 1
    },
    {
      "city": "Bethesda",
      "latitude": 38.9893,
      "longitude": -77.1586,
      "session_hits": 1
    },
    {
      "city": "Rockville",
      "latitude": 39.0462,
      "longitude": -77.1195,
      "session_hits": 1
    },
    {
      "city": "Olney",
      "latitude": 39.1585,
      "longitude": -77.0837,
      "session_hits": 1
    },
    {
      "city": "Washington",
      "latitude": 38.9091,
      "longitude": -77.0203,
      "session_hits": 1
    },
    {
      "city": "Clarksville",
      "latitude": 39.2079,
      "longitude": -76.9593,
      "session_hits": 1
    },
    {
      "city": "Harrisburg",
      "latitude": 40.3062,
      "longitude": -76.8841,
      "session_hits": 1
    },
    {
      "city": "Harrisburg",
      "latitude": 40.2602,
      "longitude": -76.8591,
      "session_hits": 1
    },
    {
      "city": "Reisterstown",
      "latitude": 39.4698,
      "longitude": -76.8319,
      "session_hits": 1
    },
    {
      "city": "Perry Hall",
      "latitude": 39.4126,
      "longitude": -76.4636,
      "session_hits": 1
    },
    {
      "city": "Kanata",
      "latitude": 45.3736,
      "longitude": -75.918,
      "session_hits": 1
    },
    {
      "city": "Ottawa",
      "latitude": 45.413,
      "longitude": -75.7011,
      "session_hits": 1
    },
    {
      "city": "Hockessin",
      "latitude": 39.7793,
      "longitude": -75.6946,
      "session_hits": 1
    },
    {
      "city": "Allentown",
      "latitude": 40.605,
      "longitude": -75.4817,
      "session_hits": 1
    },
    {
      "city": "Upper Darby",
      "latitude": 39.9218,
      "longitude": -75.268,
      "session_hits": 1
    },
    {
      "city": "Southampton",
      "latitude": 40.1743,
      "longitude": -75.0438,
      "session_hits": 2
    },
    {
      "city": "Parsippany",
      "latitude": 40.8617,
      "longitude": -74.4104,
      "session_hits": 2
    },
    {
      "city": "Old Bridge",
      "latitude": 40.4148,
      "longitude": -74.3654,
      "session_hits": 1
    },
    {
      "city": "Livingston",
      "latitude": 40.7872,
      "longitude": -74.3225,
      "session_hits": 2
    },
    {
      "city": "Iselin",
      "latitude": 40.5687,
      "longitude": -74.3202,
      "session_hits": 1
    },
    {
      "city": "West Orange",
      "latitude": 40.798,
      "longitude": -74.2416,
      "session_hits": 1
    },
    {
      "city": "Newark",
      "latitude": 40.7242,
      "longitude": -74.1977,
      "session_hits": 6
    },
    {
      "city": "Mahwah",
      "latitude": 41.0817,
      "longitude": -74.1863,
      "session_hits": 1
    },
    {
      "city": "Paterson",
      "latitude": 40.9266,
      "longitude": -74.1818,
      "session_hits": 1
    },
    {
      "city": "Hawthorne",
      "latitude": 40.9572,
      "longitude": -74.1604,
      "session_hits": 1
    },
    {
      "city": "Nutley",
      "latitude": 40.8185,
      "longitude": -74.1589,
      "session_hits": 1
    },
    {
      "city": "Elmwood Park",
      "latitude": 40.9105,
      "longitude": -74.1233,
      "session_hits": 1
    },
    {
      "city": "Spring Valley",
      "latitude": 41.1144,
      "longitude": -74.0429,
      "session_hits": 1
    },
    {
      "city": "Asbury Park",
      "latitude": 40.2149,
      "longitude": -74.0104,
      "session_hits": 1
    },
    {
      "city": "Queens",
      "latitude": 40.7706,
      "longitude": -73.9283,
      "session_hits": 1
    },
    {
      "city": "Queens",
      "latitude": 40.726,
      "longitude": -73.848,
      "session_hits": 1
    },
    {
      "city": "Clifton Park",
      "latitude": 42.8656,
      "longitude": -73.7709,
      "session_hits": 2
    },
    {
      "city": "Port Chester",
      "latitude": 41.0018,
      "longitude": -73.6657,
      "session_hits": 2
    },
    {
      "city": "Glen Head",
      "latitude": 40.834,
      "longitude": -73.6412,
      "session_hits": 1
    },
    {
      "city": "Montreal",
      "latitude": 45.5075,
      "longitude": -73.5887,
      "session_hits": 1
    },
    {
      "city": "Westbury",
      "latitude": 40.7506,
      "longitude": -73.583,
      "session_hits": 1
    },
    {
      "city": "Plainview",
      "latitude": 40.7746,
      "longitude": -73.4761,
      "session_hits": 1
    },
    {
      "city": "Milford",
      "latitude": 41.217,
      "longitude": -73.0552,
      "session_hits": 2
    },
    {
      "city": "Hamden",
      "latitude": 41.3571,
      "longitude": -72.9334,
      "session_hits": 1
    },
    {
      "city": "East Hartford",
      "latitude": 41.7803,
      "longitude": -72.618,
      "session_hits": 1
    },
    {
      "city": "East Hampton",
      "latitude": 40.9634,
      "longitude": -72.1848,
      "session_hits": 1
    },
    {
      "city": "Milford",
      "latitude": 42.1398,
      "longitude": -71.5162,
      "session_hits": 1
    },
    {
      "city": "Acton",
      "latitude": 42.4748,
      "longitude": -71.4499,
      "session_hits": 1
    },
    {
      "city": "Brighton",
      "latitude": 42.3474,
      "longitude": -71.1582,
      "session_hits": 1
    },
    {
      "city": "Somerville",
      "latitude": 42.3797,
      "longitude": -71.1034,
      "session_hits": 1
    },
    {
      "city": "Hingham",
      "latitude": 42.2229,
      "longitude": -70.8819,
      "session_hits": 1
    },
    {
      "city": "Philipsburg",
      "latitude": 18.026,
      "longitude": -63.0434,
      "session_hits": 2
    },
    {
      "city": "Curepe",
      "latitude": 10.6335,
      "longitude": -61.4041,
      "session_hits": 1
    },
    {
      "city": "Arima",
      "latitude": 10.6356,
      "longitude": -61.2834,
      "session_hits": 1
    },
    {
      "city": "Northolt",
      "latitude": 51.5494,
      "longitude": -0.3664,
      "session_hits": 1
    },
    {
      "city": "Amsterdam",
      "latitude": 52.3759,
      "longitude": 4.8975,
      "session_hits": 1
    },
    { "city": "", "latitude": 52.3824, "longitude": 4.8995, "session_hits": 1 },
    {
      "city": "Nairobi",
      "latitude": -1.2841,
      "longitude": 36.8155,
      "session_hits": 3
    },
    {
      "city": "Kuwait City",
      "latitude": 29.3706,
      "longitude": 47.9697,
      "session_hits": 1
    },
    {
      "city": "As S\u0101lim\u012byah",
      "latitude": 29.3323,
      "longitude": 48.074,
      "session_hits": 2
    },
    {
      "city": "Dammam",
      "latitude": 26.4336,
      "longitude": 50.1116,
      "session_hits": 2
    },
    {
      "city": "Doha",
      "latitude": 25.2925,
      "longitude": 51.5321,
      "session_hits": 3
    },
    {
      "city": "Sharjah",
      "latitude": 25.3412,
      "longitude": 55.4224,
      "session_hits": 5
    },
    {
      "city": "Al Ain City",
      "latitude": 24.19,
      "longitude": 55.7623,
      "session_hits": 3
    },
    {
      "city": "Beau Bassin-Rose Hill",
      "latitude": -20.2397,
      "longitude": 57.4722,
      "session_hits": 1
    },
    {
      "city": "Bhuj",
      "latitude": 23.2534,
      "longitude": 69.6657,
      "session_hits": 4
    },
    {
      "city": "Rajkot",
      "latitude": 22.2904,
      "longitude": 70.7915,
      "session_hits": 106
    },
    {
      "city": "Vasai",
      "latitude": 19.3607,
      "longitude": 72.7956,
      "session_hits": 7
    },
    {
      "city": "Nadi\u0101d",
      "latitude": 22.6909,
      "longitude": 72.8646,
      "session_hits": 3
    },
    {
      "city": "Mira Road",
      "latitude": 19.2836,
      "longitude": 72.8675,
      "session_hits": 3
    },
    {
      "city": "Alibag",
      "latitude": 18.6444,
      "longitude": 72.8819,
      "session_hits": 4
    },
    {
      "city": "Mumbai",
      "latitude": 19.0748,
      "longitude": 72.8856,
      "session_hits": 4314
    },
    {
      "city": "",
      "latitude": 19.0748,
      "longitude": 72.8856,
      "session_hits": 20
    },
    {
      "city": "Bilimora",
      "latitude": 20.7721,
      "longitude": 72.9579,
      "session_hits": 2
    },
    {
      "city": "K\u0101lva",
      "latitude": 19.1961,
      "longitude": 73.0003,
      "session_hits": 2
    },
    {
      "city": "Bhiwandi",
      "latitude": 19.3121,
      "longitude": 73.0607,
      "session_hits": 11
    },
    {
      "city": "Dombivali",
      "latitude": 19.2185,
      "longitude": 73.0741,
      "session_hits": 29
    },
    {
      "city": "Panvel",
      "latitude": 18.9894,
      "longitude": 73.1074,
      "session_hits": 12
    },
    {
      "city": "Ulhasnagar",
      "latitude": 19.217,
      "longitude": 73.1483,
      "session_hits": 17
    },
    {
      "city": "Vadodara",
      "latitude": 22.3008,
      "longitude": 73.2043,
      "session_hits": 262
    },
    {
      "city": "Mod\u0101sa",
      "latitude": 23.4698,
      "longitude": 73.301,
      "session_hits": 1
    },
    {
      "city": "Ratnagiri",
      "latitude": 16.9881,
      "longitude": 73.3033,
      "session_hits": 1
    },
    {
      "city": "Sh\u0101h\u0101pur",
      "latitude": 19.4503,
      "longitude": 73.3235,
      "session_hits": 2
    },
    {
      "city": "Karjat",
      "latitude": 18.9085,
      "longitude": 73.3248,
      "session_hits": 1
    },
    {
      "city": "Murb\u0101d",
      "latitude": 19.249,
      "longitude": 73.3904,
      "session_hits": 3
    },
    {
      "city": "Pimpri-Chinchwad",
      "latitude": 18.6171,
      "longitude": 73.7966,
      "session_hits": 7
    },
    {
      "city": "",
      "latitude": 15.3973,
      "longitude": 73.8196,
      "session_hits": 29
    },
    {
      "city": "Mormugao",
      "latitude": 15.3911,
      "longitude": 73.8204,
      "session_hits": 41
    },
    {
      "city": "Chimbel",
      "latitude": 15.49,
      "longitude": 73.865,
      "session_hits": 5
    },
    {
      "city": "Sri Ganganagar",
      "latitude": 29.9192,
      "longitude": 73.8741,
      "session_hits": 2
    },
    {
      "city": "Curchorem",
      "latitude": 15.2672,
      "longitude": 74.1084,
      "session_hits": 2
    },
    {
      "city": "South Goa",
      "latitude": 15.2033,
      "longitude": 74.1675,
      "session_hits": 2
    },
    {
      "city": "Kolh\u0101pur",
      "latitude": 16.6956,
      "longitude": 74.2317,
      "session_hits": 70
    },
    {
      "city": "Ashta",
      "latitude": 16.9596,
      "longitude": 74.4174,
      "session_hits": 5
    },
    {
      "city": "B\u0101r\u0101mati",
      "latitude": 18.1534,
      "longitude": 74.5755,
      "session_hits": 2
    },
    {
      "city": "Far\u012bdkot",
      "latitude": 30.6718,
      "longitude": 74.7648,
      "session_hits": 1
    },
    {
      "city": "Sirsa",
      "latitude": 29.5386,
      "longitude": 75.0272,
      "session_hits": 2
    },
    {
      "city": "Moga",
      "latitude": 30.8196,
      "longitude": 75.1703,
      "session_hits": 1
    },
    {
      "city": "Beltangadi",
      "latitude": 13.9812,
      "longitude": 75.2973,
      "session_hits": 2
    },
    {
      "city": "Barn\u0101la",
      "latitude": 30.3728,
      "longitude": 75.5413,
      "session_hits": 1
    },
    {
      "city": "Khargone",
      "latitude": 21.82,
      "longitude": 75.6157,
      "session_hits": 1
    },
    {
      "city": "Beed",
      "latitude": 18.9848,
      "longitude": 75.7578,
      "session_hits": 2
    },
    {
      "city": "Ujjain",
      "latitude": 23.1793,
      "longitude": 75.7684,
      "session_hits": 1
    },
    {
      "city": "Phagw\u0101ra",
      "latitude": 31.2281,
      "longitude": 75.7787,
      "session_hits": 4
    },
    {
      "city": "",
      "latitude": 30.9146,
      "longitude": 75.8543,
      "session_hits": 33
    },
    {
      "city": "Tirur",
      "latitude": 10.915,
      "longitude": 75.9202,
      "session_hits": 3
    },
    {
      "city": "Davangere",
      "latitude": 14.4611,
      "longitude": 75.9245,
      "session_hits": 6
    },
    {
      "city": "Dewas",
      "latitude": 22.9644,
      "longitude": 76.0473,
      "session_hits": 3
    },
    {
      "city": "Kalpatta",
      "latitude": 11.6032,
      "longitude": 76.0793,
      "session_hits": 2
    },
    {
      "city": "Chamba",
      "latitude": 32.5488,
      "longitude": 76.1264,
      "session_hits": 2
    },
    {
      "city": "Mahendragarh",
      "latitude": 28.272,
      "longitude": 76.1555,
      "session_hits": 16
    },
    {
      "city": "Patt\u0101mbi",
      "latitude": 10.7988,
      "longitude": 76.1835,
      "session_hits": 5
    },
    {
      "city": "Chikhli",
      "latitude": 20.3505,
      "longitude": 76.2577,
      "session_hits": 1
    },
    {
      "city": "Kochi",
      "latitude": 9.9406,
      "longitude": 76.2653,
      "session_hits": 386
    },
    {
      "city": "",
      "latitude": 9.9667,
      "longitude": 76.2667,
      "session_hits": 39
    },
    {
      "city": "Dharamsala",
      "latitude": 32.2146,
      "longitude": 76.3137,
      "session_hits": 1
    },
    {
      "city": "J\u012bnd",
      "latitude": 29.3146,
      "longitude": 76.3185,
      "session_hits": 1
    },
    {
      "city": "Alappuzha",
      "latitude": 9.4897,
      "longitude": 76.3223,
      "session_hits": 10
    },
    {
      "city": "Chitradurga",
      "latitude": 14.2204,
      "longitude": 76.3978,
      "session_hits": 1
    },
    {
      "city": "Ham\u012brpur",
      "latitude": 31.6866,
      "longitude": 76.5218,
      "session_hits": 18
    },
    {
      "city": "Rohtak",
      "latitude": 28.8964,
      "longitude": 76.5909,
      "session_hits": 6
    },
    {
      "city": "Kunnamthanam",
      "latitude": 9.4323,
      "longitude": 76.6141,
      "session_hits": 2
    },
    {
      "city": "Alwar",
      "latitude": 27.5634,
      "longitude": 76.626,
      "session_hits": 1
    },
    {
      "city": "Kharar",
      "latitude": 30.743,
      "longitude": 76.6534,
      "session_hits": 1
    },
    {
      "city": "Chandigarh",
      "latitude": 30.7339,
      "longitude": 76.7889,
      "session_hits": 376
    },
    {
      "city": "Zerakpur",
      "latitude": 30.6566,
      "longitude": 76.8255,
      "session_hits": 6
    },
    {
      "city": "Kurukshetra",
      "latitude": 29.9666,
      "longitude": 76.8358,
      "session_hits": 16
    },
    {
      "city": "Mundak\u0101yam",
      "latitude": 9.5355,
      "longitude": 76.8861,
      "session_hits": 3
    },
    {
      "city": "Hary\u0101na",
      "latitude": 29.6173,
      "longitude": 76.9775,
      "session_hits": 3
    },
    {
      "city": "Karn\u0101l",
      "latitude": 29.6923,
      "longitude": 76.986,
      "session_hits": 1
    },
    {
      "city": "New Delhi",
      "latitude": 28.6327,
      "longitude": 77.2198,
      "session_hits": 1328
    },
    {
      "city": "",
      "latitude": 28.6542,
      "longitude": 77.2373,
      "session_hits": 15
    },
    {
      "city": "Kadayanallur",
      "latitude": 9.0758,
      "longitude": 77.3479,
      "session_hits": 1
    },
    {
      "city": "Tirupur",
      "latitude": 11.1067,
      "longitude": 77.3545,
      "session_hits": 1
    },
    {
      "city": "Nagercoil",
      "latitude": 8.1832,
      "longitude": 77.4277,
      "session_hits": 3
    },
    {
      "city": "Greater Noida",
      "latitude": 28.4927,
      "longitude": 77.5358,
      "session_hits": 1
    },
    {
      "city": "",
      "latitude": 12.9753,
      "longitude": 77.591,
      "session_hits": 16
    },
    {
      "city": "Meerut",
      "latitude": 28.9834,
      "longitude": 77.706,
      "session_hits": 10
    },
    {
      "city": "Erode",
      "latitude": 11.3458,
      "longitude": 77.7334,
      "session_hits": 52
    },
    {
      "city": "Ashoknagar",
      "latitude": 24.5741,
      "longitude": 77.7334,
      "session_hits": 4
    },
    {
      "city": "Sattur",
      "latitude": 9.3568,
      "longitude": 77.9286,
      "session_hits": 1
    },
    {
      "city": "Kurnool",
      "latitude": 15.8237,
      "longitude": 78.0392,
      "session_hits": 4
    },
    {
      "city": "Tiruchchendur",
      "latitude": 8.501,
      "longitude": 78.1295,
      "session_hits": 1
    },
    {
      "city": "Hyderabad",
      "latitude": 17.3843,
      "longitude": 78.4583,
      "session_hits": 2435
    },
    {
      "city": "",
      "latitude": 17.3843,
      "longitude": 78.4583,
      "session_hits": 4
    },
    {
      "city": "Nagpur",
      "latitude": 21.1463,
      "longitude": 79.0849,
      "session_hits": 428
    },
    {
      "city": "Kothapeta",
      "latitude": 13.5548,
      "longitude": 79.0871,
      "session_hits": 2
    },
    {
      "city": "\u0100ndimatam",
      "latitude": 11.3365,
      "longitude": 79.3752,
      "session_hits": 2
    },
    {
      "city": "S\u0101gar",
      "latitude": 22.2702,
      "longitude": 79.4258,
      "session_hits": 1
    },
    {
      "city": "Neyveli",
      "latitude": 11.6112,
      "longitude": 79.4972,
      "session_hits": 2
    },
    {
      "city": "K\u0101raik\u0101l",
      "latitude": 10.9137,
      "longitude": 79.8307,
      "session_hits": 1
    },
    {
      "city": "Colombo",
      "latitude": 6.9394,
      "longitude": 79.8476,
      "session_hits": 2
    },
    {
      "city": "Dehiwala",
      "latitude": 6.8505,
      "longitude": 79.8603,
      "session_hits": 1
    },
    {
      "city": "Colombo",
      "latitude": 6.92,
      "longitude": 79.8772,
      "session_hits": 1
    },
    {
      "city": "Jabalpur",
      "latitude": 23.1701,
      "longitude": 79.957,
      "session_hits": 10
    },
    {
      "city": "Nellore",
      "latitude": 14.4484,
      "longitude": 79.9888,
      "session_hits": 16
    },
    {
      "city": "",
      "latitude": 26.4631,
      "longitude": 80.3479,
      "session_hits": 118
    },
    {
      "city": "Guntur",
      "latitude": 16.3007,
      "longitude": 80.4639,
      "session_hits": 26
    },
    {
      "city": "Kottag\u016bdem",
      "latitude": 17.5447,
      "longitude": 80.6171,
      "session_hits": 5
    },
    {
      "city": "Pedana",
      "latitude": 16.259,
      "longitude": 81.1421,
      "session_hits": 1
    },
    {
      "city": "Chinn\u0101yag\u016bdem",
      "latitude": 17.044,
      "longitude": 81.4776,
      "session_hits": 3
    },
    {
      "city": "Prayagraj",
      "latitude": 25.4425,
      "longitude": 81.8517,
      "session_hits": 10
    },
    {
      "city": "Anaparthy",
      "latitude": 16.9338,
      "longitude": 81.9579,
      "session_hits": 6
    },
    {
      "city": "R\u0101machandrapuram",
      "latitude": 16.8344,
      "longitude": 82.0332,
      "session_hits": 1
    },
    {
      "city": "Korba",
      "latitude": 22.3403,
      "longitude": 82.6928,
      "session_hits": 3
    },
    {
      "city": "Basti",
      "latitude": 26.7836,
      "longitude": 82.7133,
      "session_hits": 31
    },
    { "city": "", "latitude": 28.0, "longitude": 84.0, "session_hits": 4 },
    {
      "city": "Gaya",
      "latitude": 24.7935,
      "longitude": 85.012,
      "session_hits": 3
    },
    {
      "city": "Sheohar",
      "latitude": 26.513,
      "longitude": 85.2975,
      "session_hits": 3
    },
    {
      "city": "Barbil",
      "latitude": 22.107,
      "longitude": 85.3755,
      "session_hits": 6
    },
    {
      "city": "Karanji\u0101",
      "latitude": 21.7626,
      "longitude": 85.9732,
      "session_hits": 2
    },
    {
      "city": "Asansol",
      "latitude": 23.6833,
      "longitude": 86.9833,
      "session_hits": 12
    },
    {
      "city": "Durgapur",
      "latitude": 23.5159,
      "longitude": 87.307,
      "session_hits": 1
    },
    {
      "city": "Ar\u0101ria",
      "latitude": 26.1519,
      "longitude": 87.5162,
      "session_hits": 3
    },
    {
      "city": "Kar\u012bmpur",
      "latitude": 23.975,
      "longitude": 88.6183,
      "session_hits": 1
    },
    {
      "city": "Chandmari",
      "latitude": 27.3379,
      "longitude": 88.6226,
      "session_hits": 1
    },
    {
      "city": "Thimphu",
      "latitude": 27.47,
      "longitude": 89.6431,
      "session_hits": 5
    },
    {
      "city": "Dhaka",
      "latitude": 23.7278,
      "longitude": 90.4135,
      "session_hits": 1
    },
    {
      "city": "Agartala",
      "latitude": 23.8354,
      "longitude": 91.2818,
      "session_hits": 2
    },
    {
      "city": "Prothrapur",
      "latitude": 11.618,
      "longitude": 92.7244,
      "session_hits": 2
    },
    {
      "city": "Bangkok",
      "latitude": 13.7749,
      "longitude": 100.5197,
      "session_hits": 2
    },
    {
      "city": "Kampung Sitiawan",
      "latitude": 4.3257,
      "longitude": 100.8,
      "session_hits": 1
    },
    {
      "city": "Pekanbaru",
      "latitude": 0.5217,
      "longitude": 101.4343,
      "session_hits": 4
    },
    {
      "city": "Puchong Batu Dua Belas",
      "latitude": 3.0732,
      "longitude": 101.6219,
      "session_hits": 8
    },
    {
      "city": "Singapore",
      "latitude": 1.3563,
      "longitude": 103.7542,
      "session_hits": 8
    },
    {
      "city": "Singapore",
      "latitude": 1.3756,
      "longitude": 103.7685,
      "session_hits": 7
    },
    {
      "city": "Singapore",
      "latitude": 1.2968,
      "longitude": 103.8049,
      "session_hits": 1
    },
    {
      "city": "Singapore",
      "latitude": 1.2872,
      "longitude": 103.8507,
      "session_hits": 8
    },
    {
      "city": "Singapore",
      "latitude": 1.3352,
      "longitude": 103.8529,
      "session_hits": 6
    },
    {
      "city": "Singapore",
      "latitude": 1.3596,
      "longitude": 103.8637,
      "session_hits": 7
    },
    {
      "city": "Singapore",
      "latitude": 1.3267,
      "longitude": 103.8869,
      "session_hits": 1
    },
    {
      "city": "Singapore",
      "latitude": 1.3164,
      "longitude": 103.9232,
      "session_hits": 1
    },
    {
      "city": "Ho Chi Minh City",
      "latitude": 10.822,
      "longitude": 106.6257,
      "session_hits": 5
    },
    {
      "city": "Qu\u1eadn B\u00ecnh Th\u1ea1nh",
      "latitude": 10.7976,
      "longitude": 106.6993,
      "session_hits": 1
    },
    {
      "city": "Jakarta",
      "latitude": -6.2077,
      "longitude": 106.8354,
      "session_hits": 1
    },
    {
      "city": "",
      "latitude": -6.2114,
      "longitude": 106.8446,
      "session_hits": 1
    },
    {
      "city": "Da Nang",
      "latitude": 16.0685,
      "longitude": 108.2215,
      "session_hits": 1
    },
    {
      "city": "Perth",
      "latitude": -32.0498,
      "longitude": 115.8861,
      "session_hits": 1
    },
    {
      "city": "Perth",
      "latitude": -32.0313,
      "longitude": 115.9703,
      "session_hits": 1
    },
    {
      "city": "Seo-gu",
      "latitude": 37.5214,
      "longitude": 126.6251,
      "session_hits": 1
    },
    {
      "city": "Hwaseong-si",
      "latitude": 37.1609,
      "longitude": 127.1094,
      "session_hits": 1
    },
    {
      "city": "Utsukushigaoka",
      "latitude": 35.5803,
      "longitude": 139.5517,
      "session_hits": 2
    },
    {
      "city": "Shakujiimachi",
      "latitude": 35.74,
      "longitude": 139.6038,
      "session_hits": 1
    },
    { "city": "", "latitude": 35.69, "longitude": 139.69, "session_hits": 4 },
    {
      "city": "Tomakomai",
      "latitude": 42.6382,
      "longitude": 141.607,
      "session_hits": 1
    },
    {
      "city": "",
      "latitude": -33.494,
      "longitude": 143.2104,
      "session_hits": 2
    },
    {
      "city": "Melbourne",
      "latitude": -37.7764,
      "longitude": 144.8881,
      "session_hits": 1
    },
    {
      "city": "Melbourne",
      "latitude": -37.834,
      "longitude": 144.9832,
      "session_hits": 1
    },
    {
      "city": "Melbourne",
      "latitude": -37.8008,
      "longitude": 144.9876,
      "session_hits": 2
    },
    {
      "city": "Melbourne",
      "latitude": -37.8335,
      "longitude": 145.0012,
      "session_hits": 6
    },
    {
      "city": "Melbourne",
      "latitude": -37.7986,
      "longitude": 145.0031,
      "session_hits": 2
    },
    {
      "city": "Melbourne",
      "latitude": -37.8207,
      "longitude": 145.0408,
      "session_hits": 1
    },
    {
      "city": "Canberra",
      "latitude": -35.2828,
      "longitude": 149.1283,
      "session_hits": 1
    },
    {
      "city": "Thirlmere",
      "latitude": -34.1562,
      "longitude": 150.5364,
      "session_hits": 1
    },
    {
      "city": "Sydney",
      "latitude": -33.9405,
      "longitude": 150.8511,
      "session_hits": 1
    },
    {
      "city": "Sydney",
      "latitude": -33.8069,
      "longitude": 150.9845,
      "session_hits": 6
    },
    {
      "city": "Sydney",
      "latitude": -33.7777,
      "longitude": 151.0117,
      "session_hits": 1
    },
    {
      "city": "Sydney",
      "latitude": -33.9829,
      "longitude": 151.0365,
      "session_hits": 3
    },
    {
      "city": "Sydney",
      "latitude": -33.8653,
      "longitude": 151.1021,
      "session_hits": 1
    },
    {
      "city": "Sydney",
      "latitude": -33.9253,
      "longitude": 151.1916,
      "session_hits": 2
    },
    {
      "city": "Sydney",
      "latitude": -33.8681,
      "longitude": 151.1967,
      "session_hits": 1
    },
    {
      "city": "Sydney",
      "latitude": -33.9062,
      "longitude": 151.2107,
      "session_hits": 2
    },
    {
      "city": "Brisbane",
      "latitude": -27.4683,
      "longitude": 153.0322,
      "session_hits": 2
    },
    {
      "city": "",
      "latitude": -27.4683,
      "longitude": 153.0322,
      "session_hits": 1
    },
    {
      "city": "Auckland",
      "latitude": -36.8087,
      "longitude": 174.7815,
      "session_hits": 1
    },
    {
      "city": "Auckland",
      "latitude": -36.8322,
      "longitude": 174.7898,
      "session_hits": 1
    },
    {
      "city": "Hamilton",
      "latitude": -37.7837,
      "longitude": 175.2824,
      "session_hits": 1
    },
    {
      "city": "Parksville",
      "latitude": 49.3163,
      "longitude": -124.3194,
      "session_hits": 2
    },
    {
      "city": "Corvallis",
      "latitude": 44.5928,
      "longitude": -123.2746,
      "session_hits": 4
    },
    {
      "city": "Richmond",
      "latitude": 49.1181,
      "longitude": -123.1175,
      "session_hits": 1
    },
    {
      "city": "Vancouver",
      "latitude": 49.2372,
      "longitude": -123.037,
      "session_hits": 1
    },
    {
      "city": "Burnaby",
      "latitude": 49.2286,
      "longitude": -122.9317,
      "session_hits": 1
    },
    {
      "city": "Portland",
      "latitude": 45.5496,
      "longitude": -122.8293,
      "session_hits": 4
    },
    {
      "city": "Surrey",
      "latitude": 49.0823,
      "longitude": -122.771,
      "session_hits": 2
    },
    {
      "city": "Rohnert Park",
      "latitude": 38.3456,
      "longitude": -122.6919,
      "session_hits": 1
    },
    {
      "city": "West Linn",
      "latitude": 45.3779,
      "longitude": -122.6201,
      "session_hits": 1
    },
    {
      "city": "Novato",
      "latitude": 38.1163,
      "longitude": -122.5714,
      "session_hits": 1
    },
    {
      "city": "San Francisco",
      "latitude": 37.7201,
      "longitude": -122.4414,
      "session_hits": 3
    },
    {
      "city": "San Francisco",
      "latitude": 37.7703,
      "longitude": -122.4407,
      "session_hits": 3
    },
    {
      "city": "San Francisco",
      "latitude": 37.747,
      "longitude": -122.4389,
      "session_hits": 2
    },
    {
      "city": "San Francisco",
      "latitude": 37.7958,
      "longitude": -122.4203,
      "session_hits": 3
    },
    {
      "city": "Gresham",
      "latitude": 45.4817,
      "longitude": -122.4156,
      "session_hits": 1
    },
    {
      "city": "Edmonds",
      "latitude": 47.803,
      "longitude": -122.3739,
      "session_hits": 1
    },
    {
      "city": "Seattle",
      "latitude": 47.6109,
      "longitude": -122.3303,
      "session_hits": 1
    },
    {
      "city": "Seattle",
      "latitude": 47.6295,
      "longitude": -122.3165,
      "session_hits": 2
    },
    {
      "city": "Seattle",
      "latitude": 47.5834,
      "longitude": -122.2979,
      "session_hits": 2
    },
    {
      "city": "Albany",
      "latitude": 37.8906,
      "longitude": -122.2936,
      "session_hits": 1
    },
    {
      "city": "Hercules",
      "latitude": 38.0171,
      "longitude": -122.2886,
      "session_hits": 4
    },
    {
      "city": "Vallejo",
      "latitude": 38.1582,
      "longitude": -122.2804,
      "session_hits": 1
    },
    {
      "city": "Belmont",
      "latitude": 37.5202,
      "longitude": -122.2758,
      "session_hits": 3
    },
    {
      "city": "Tukwila",
      "latitude": 47.4775,
      "longitude": -122.2589,
      "session_hits": 1
    },
    {
      "city": "Kent",
      "latitude": 47.3831,
      "longitude": -122.2092,
      "session_hits": 1
    },
    {
      "city": "Bellevue",
      "latitude": 47.6131,
      "longitude": -122.2053,
      "session_hits": 3
    },
    {
      "city": "Oakland",
      "latitude": 37.7652,
      "longitude": -122.1579,
      "session_hits": 3
    },
    {
      "city": "Arlington",
      "latitude": 48.1987,
      "longitude": -122.1251,
      "session_hits": 2
    },
    {
      "city": "Hayward",
      "latitude": 37.6736,
      "longitude": -122.0944,
      "session_hits": 4
    },
    {
      "city": "Cupertino",
      "latitude": 37.3177,
      "longitude": -122.0438,
      "session_hits": 2
    },
    {
      "city": "Castro Valley",
      "latitude": 37.7124,
      "longitude": -122.0399,
      "session_hits": 1
    },
    {
      "city": "Sammamish",
      "latitude": 47.5871,
      "longitude": -122.0388,
      "session_hits": 1
    },
    {
      "city": "Sunnyvale",
      "latitude": 37.3767,
      "longitude": -122.0198,
      "session_hits": 3
    },
    {
      "city": "Fremont",
      "latitude": 37.5625,
      "longitude": -122.0004,
      "session_hits": 6
    },
    {
      "city": "San Jose",
      "latitude": 37.3028,
      "longitude": -121.9982,
      "session_hits": 1
    },
    {
      "city": "Campbell",
      "latitude": 37.2808,
      "longitude": -121.9572,
      "session_hits": 2
    },
    {
      "city": "San Jose",
      "latitude": 37.26,
      "longitude": -121.9173,
      "session_hits": 2
    },
    {
      "city": "San Ramon",
      "latitude": 37.7618,
      "longitude": -121.9133,
      "session_hits": 8
    },
    {
      "city": "San Jose",
      "latitude": 37.3209,
      "longitude": -121.9126,
      "session_hits": 4
    },
    {
      "city": "San Jose",
      "latitude": 37.3512,
      "longitude": -121.8846,
      "session_hits": 1
    },
    {
      "city": "Pleasanton",
      "latitude": 37.6652,
      "longitude": -121.8734,
      "session_hits": 2
    },
    {
      "city": "San Jose",
      "latitude": 37.3313,
      "longitude": -121.8401,
      "session_hits": 6
    },
    {
      "city": "San Jose",
      "latitude": 37.3073,
      "longitude": -121.8076,
      "session_hits": 1
    },
    {
      "city": "Watsonville",
      "latitude": 36.9102,
      "longitude": -121.7564,
      "session_hits": 1
    },
    {
      "city": "Sacramento",
      "latitude": 38.4689,
      "longitude": -121.344,
      "session_hits": 1
    },
    {
      "city": "Hollister",
      "latitude": 36.8337,
      "longitude": -121.3439,
      "session_hits": 1
    },
    {
      "city": "Merced",
      "latitude": 37.2306,
      "longitude": -120.5194,
      "session_hits": 1
    },
    {
      "city": "Fresno",
      "latitude": 36.8878,
      "longitude": -119.7589,
      "session_hits": 1
    },
    {
      "city": "Boardman",
      "latitude": 45.8401,
      "longitude": -119.705,
      "session_hits": 1
    },
    {
      "city": "Kelowna",
      "latitude": 49.8956,
      "longitude": -119.4897,
      "session_hits": 1
    },
    {
      "city": "Oxnard",
      "latitude": 34.1649,
      "longitude": -119.172,
      "session_hits": 1
    },
    {
      "city": "Simi Valley",
      "latitude": 34.2666,
      "longitude": -118.7643,
      "session_hits": 2
    },
    {
      "city": "Stevenson Ranch",
      "latitude": 34.3851,
      "longitude": -118.5627,
      "session_hits": 1
    },
    {
      "city": "North Hollywood",
      "latitude": 34.169,
      "longitude": -118.3713,
      "session_hits": 1
    },
    {
      "city": "",
      "latitude": 34.0544,
      "longitude": -118.244,
      "session_hits": 2
    },
    {
      "city": "Anaheim",
      "latitude": 33.816,
      "longitude": -117.9692,
      "session_hits": 3
    },
    {
      "city": "Fullerton",
      "latitude": 33.8782,
      "longitude": -117.9567,
      "session_hits": 1
    },
    {
      "city": "Laguna Niguel",
      "latitude": 33.5157,
      "longitude": -117.7109,
      "session_hits": 1
    },
    {
      "city": "Irvine",
      "latitude": 33.7074,
      "longitude": -117.7054,
      "session_hits": 2
    },
    {
      "city": "Chino",
      "latitude": 34.0121,
      "longitude": -117.6883,
      "session_hits": 3
    },
    {
      "city": "San Clemente",
      "latitude": 33.4601,
      "longitude": -117.6382,
      "session_hits": 1
    },
    {
      "city": "Spokane",
      "latitude": 47.7027,
      "longitude": -117.3702,
      "session_hits": 1
    },
    {
      "city": "Colton",
      "latitude": 34.0739,
      "longitude": -117.3136,
      "session_hits": 7
    },
    {
      "city": "Riverside",
      "latitude": 33.89,
      "longitude": -117.3043,
      "session_hits": 1
    },
    {
      "city": "Vista",
      "latitude": 33.1981,
      "longitude": -117.2471,
      "session_hits": 1
    },